[
  {
    "id": "tepco_kikan_90",
    "name": "港北線(港北~荏田)",
    "name_original": "港北線（港北～荏田）",
    "name_normalized": "港北線(港北~荏田)",
    "utility": "TEPCO",
    "voltage_kv": 275,
    "available_kw": 0,
    "updated_at": "2025-11-25",
    "lat": 35.0241319,
    "lon": 135.7523188,
    "matched_source": "cache",
    "confidence": 0.75,
    "notes": "cached source=nominatim verified=2025-11-26 display='堀川変電所, 東堀川通, 武衛陣町, 主計町, 上京区, 京都市, 京都府, 602-8058, 日本'"
  },
  {
    "id": "tepco_kikan_142",
    "name": "新福島",
    "name_original": "新福島",
    "name_normalized": "新福島",
    "utility": "TEPCO",
    "voltage_kv": 275,
    "available_kw": 0,
    "updated_at": "2025-11-25",
    "lat": 36.52292753658536,
    "lon": 140.15242855365852,
    "matched_source": "cache",
    "confidence": 0.7,
    "notes": "cached source=osm verified=2025-11-26 display='新茂木'"
  },
  {
    "id": "tepco_kikan_143",
    "name": "新福島",
    "name_original": "新福島",
    "name_normalized": "新福島",
    "utility": "TEPCO",
    "voltage_kv": 66,
    "available_kw": 0,
    "updated_at": "2025-11-25",
    "lat": 36.52292753658536,
    "lon": 140.15242855365852,
    "matched_source": "cache",
    "confidence": 0.7,
    "notes": "cached source=osm verified=2025-11-26 display='新茂木'"
  },
  {
    "id": "tepco_kikan_144",
    "name": "新茂木",
    "name_original": "新茂木",
    "name_normalized": "新茂木",
    "utility": "TEPCO",
    "voltage_kv": 275,
    "available_kw": 0,
    "updated_at": "2025-11-25",
    "lat": 36.52292753658536,
    "lon": 140.15242855365852,
    "matched_source": "cache",
    "confidence": 0.9,
    "notes": "cached source=osm verified=2025-11-26 display='新茂木'"
  },
  {
    "id": "tepco_kikan_145",
    "name": "新栃木",
    "name_original": "新栃木",
    "name_normalized": "新栃木",
    "utility": "TEPCO",
    "voltage_kv": 275,
    "available_kw": 0,
    "updated_at": "2025-11-25",
    "lat": 36.52292753658536,
    "lon": 140.15242855365852,
    "matched_source": "cache",
    "confidence": 0.8,
    "notes": "cached source=osm verified=2025-11-26 display='新茂木'"
  },
  {
    "id": "tepco_kikan_146",
    "name": "新栃木",
    "name_original": "新栃木",
    "name_normalized": "新栃木",
    "utility": "TEPCO",
    "voltage_kv": 154,
    "available_kw": 0,
    "updated_at": "2025-11-25",
    "lat": 36.52292753658536,
    "lon": 140.15242855365852,
    "matched_source": "cache",
    "confidence": 0.8,
    "notes": "cached source=osm verified=2025-11-26 display='新茂木'"
  },
  {
    "id": "tepco_kikan_147",
    "name": "新栃木",
    "name_original": "新栃木",
    "name_normalized": "新栃木",
    "utility": "TEPCO",
    "voltage_kv": 154,
    "available_kw": 0,
    "updated_at": "2025-11-25",
    "lat": 36.52292753658536,
    "lon": 140.15242855365852,
    "matched_source": "cache",
    "confidence": 0.8,
    "notes": "cached source=osm verified=2025-11-26 display='新茂木'"
  },
  {
    "id": "tepco_kikan_148",
    "name": "新筑波",
    "name_original": "新筑波",
    "name_normalized": "新筑波",
    "utility": "TEPCO",
    "voltage_kv": 154,
    "available_kw": 0,
    "updated_at": "2025-11-25",
    "lat": 36.52292753658536,
    "lon": 140.15242855365852,
    "matched_source": "cache",
    "confidence": 0.7,
    "notes": "cached source=osm verified=2025-11-26 display='新茂木'"
  },
  {
    "id": "tepco_kikan_149",
    "name": "新古河",
    "name_original": "新古河",
    "name_normalized": "新古河",
    "utility": "TEPCO",
    "voltage_kv": 275,
    "available_kw": 5130000,
    "updated_at": "2025-11-25",
    "lat": 36.52292753658536,
    "lon": 140.15242855365852,
    "matched_source": "cache",
    "confidence": 0.7,
    "notes": "cached source=osm verified=2025-11-26 display='新茂木'"
  },
  {
    "id": "tepco_kikan_150",
    "name": "東群馬",
    "name_original": "東群馬",
    "name_normalized": "東群馬",
    "utility": "TEPCO",
    "voltage_kv": 275,
    "available_kw": 0,
    "updated_at": "2025-11-25",
    "lat": 36.579331958974365,
    "lon": 139.22354018717948,
    "matched_source": "cache",
    "confidence": 0.7,
    "notes": "cached source=osm verified=2025-11-26 display='東群馬変電所'"
  },
  {
    "id": "tepco_kikan_151",
    "name": "新新田",
    "name_original": "新新田",
    "name_normalized": "新新田",
    "utility": "TEPCO",
    "voltage_kv": 275,
    "available_kw": 800000,
    "updated_at": "2025-11-25",
    "lat": 36.52292753658536,
    "lon": 140.15242855365852,
    "matched_source": "cache",
    "confidence": 0.7,
    "notes": "cached source=osm verified=2025-11-26 display='新茂木'"
  },
  {
    "id": "tepco_kikan_152",
    "name": "新岡部",
    "name_original": "新岡部",
    "name_normalized": "新岡部",
    "utility": "TEPCO",
    "voltage_kv": 275,
    "available_kw": 1000000,
    "updated_at": "2025-11-25",
    "lat": 36.52292753658536,
    "lon": 140.15242855365852,
    "matched_source": "cache",
    "confidence": 0.7,
    "notes": "cached source=osm verified=2025-11-26 display='新茂木'"
  },
  {
    "id": "tepco_kikan_153",
    "name": "新岡部",
    "name_original": "新岡部",
    "name_normalized": "新岡部",
    "utility": "TEPCO",
    "voltage_kv": 154,
    "available_kw": 0,
    "updated_at": "2025-11-25",
    "lat": 36.52292753658536,
    "lon": 140.15242855365852,
    "matched_source": "cache",
    "confidence": 0.7,
    "notes": "cached source=osm verified=2025-11-26 display='新茂木'"
  },
  {
    "id": "tepco_kikan_154",
    "name": "新榛名",
    "name_original": "新榛名",
    "name_normalized": "新榛名",
    "utility": "TEPCO",
    "voltage_kv": 275,
    "available_kw": 0,
    "updated_at": "2025-11-25",
    "lat": 36.54779360967741,
    "lon": 138.83314955483874,
    "matched_source": "cache",
    "confidence": 0.9,
    "notes": "cached source=osm verified=2025-11-26 display='新榛名'"
  },
  {
    "id": "tepco_kikan_155",
    "name": "新信濃",
    "name_original": "新信濃",
    "name_normalized": "新信濃",
    "utility": "TEPCO",
    "voltage_kv": 275,
    "available_kw": 0,
    "updated_at": "2025-11-25",
    "lat": 36.52292753658536,
    "lon": 140.15242855365852,
    "matched_source": "cache",
    "confidence": 0.7,
    "notes": "cached source=osm verified=2025-11-26 display='新茂木'"
  },
  {
    "id": "tepco_kikan_156",
    "name": "新木更津",
    "name_original": "新木更津",
    "name_normalized": "新木更津",
    "utility": "TEPCO",
    "voltage_kv": 275,
    "available_kw": 0,
    "updated_at": "2025-11-25",
    "lat": 35.34313251111111,
    "lon": 140.02732282777777,
    "matched_source": "cache",
    "confidence": 0.7,
    "notes": "cached source=osm verified=2025-11-26 display='新木更津変電所'"
  },
  {
    "id": "tepco_kikan_157",
    "name": "房総",
    "name_original": "房総",
    "name_normalized": "房総",
    "utility": "TEPCO",
    "voltage_kv": 275,
    "available_kw": 0,
    "updated_at": "2025-11-25",
    "lat": 35.4991757047619,
    "lon": 140.16646302380954,
    "matched_source": "cache",
    "confidence": 0.7,
    "notes": "cached source=osm verified=2025-11-26 display='房総変電所'"
  },
  {
    "id": "tepco_kikan_158",
    "name": "新佐原",
    "name_original": "新佐原",
    "name_normalized": "新佐原",
    "utility": "TEPCO",
    "voltage_kv": 275,
    "available_kw": 0,
    "updated_at": "2025-11-25",
    "lat": 36.52292753658536,
    "lon": 140.15242855365852,
    "matched_source": "cache",
    "confidence": 0.7,
    "notes": "cached source=osm verified=2025-11-26 display='新茂木'"
  },
  {
    "id": "tepco_kikan_159",
    "name": "新京葉",
    "name_original": "新京葉",
    "name_normalized": "新京葉",
    "utility": "TEPCO",
    "voltage_kv": 275,
    "available_kw": 2400000,
    "updated_at": "2025-11-25",
    "lat": 36.52292753658536,
    "lon": 140.15242855365852,
    "matched_source": "cache",
    "confidence": 0.7,
    "notes": "cached source=osm verified=2025-11-26 display='新茂木'"
  },
  {
    "id": "tepco_kikan_160",
    "name": "新野田",
    "name_original": "新野田",
    "name_normalized": "新野田",
    "utility": "TEPCO",
    "voltage_kv": 275,
    "available_kw": 5130000,
    "updated_at": "2025-11-25",
    "lat": 36.52292753658536,
    "lon": 140.15242855365852,
    "matched_source": "cache",
    "confidence": 0.7,
    "notes": "cached source=osm verified=2025-11-26 display='新茂木'"
  },
  {
    "id": "tepco_kikan_161",
    "name": "東山梨",
    "name_original": "東山梨",
    "name_normalized": "東山梨",
    "utility": "TEPCO",
    "voltage_kv": 154,
    "available_kw": 1023000,
    "updated_at": "2025-11-25",
    "lat": 35.5905059488889,
    "lon": 138.79996020444443,
    "matched_source": "cache",
    "confidence": 0.7,
    "notes": "cached source=osm verified=2025-11-26 display='東山梨変電所'"
  },
  {
    "id": "tepco_kikan_162",
    "name": "新富士",
    "name_original": "新富士",
    "name_normalized": "新富士",
    "utility": "TEPCO",
    "voltage_kv": 154,
    "available_kw": 0,
    "updated_at": "2025-11-25",
    "lat": 36.52292753658536,
    "lon": 140.15242855365852,
    "matched_source": "cache",
    "confidence": 0.7,
    "notes": "cached source=osm verified=2025-11-26 display='新茂木'"
  },
  {
    "id": "tepco_kikan_163",
    "name": "新富士",
    "name_original": "新富士",
    "name_normalized": "新富士",
    "utility": "TEPCO",
    "voltage_kv": 154,
    "available_kw": 490000,
    "updated_at": "2025-11-25",
    "lat": 36.52292753658536,
    "lon": 140.15242855365852,
    "matched_source": "cache",
    "confidence": 0.7,
    "notes": "cached source=osm verified=2025-11-26 display='新茂木'"
  },
  {
    "id": "tepco_kikan_164",
    "name": "新富士",
    "name_original": "新富士",
    "name_normalized": "新富士",
    "utility": "TEPCO",
    "voltage_kv": 275,
    "available_kw": 220000,
    "updated_at": "2025-11-25",
    "lat": 36.52292753658536,
    "lon": 140.15242855365852,
    "matched_source": "cache",
    "confidence": 0.7,
    "notes": "cached source=osm verified=2025-11-26 display='新茂木'"
  },
  {
    "id": "tepco_kikan_165",
    "name": "新秦野",
    "name_original": "新秦野",
    "name_normalized": "新秦野",
    "utility": "TEPCO",
    "voltage_kv": 275,
    "available_kw": 0,
    "updated_at": "2025-11-25",
    "lat": 36.52292753658536,
    "lon": 140.15242855365852,
    "matched_source": "cache",
    "confidence": 0.7,
    "notes": "cached source=osm verified=2025-11-26 display='新茂木'"
  },
  {
    "id": "tepco_kikan_166",
    "name": "新秦野",
    "name_original": "新秦野",
    "name_normalized": "新秦野",
    "utility": "TEPCO",
    "voltage_kv": 154,
    "available_kw": 1710000,
    "updated_at": "2025-11-25",
    "lat": 36.52292753658536,
    "lon": 140.15242855365852,
    "matched_source": "cache",
    "confidence": 0.7,
    "notes": "cached source=osm verified=2025-11-26 display='新茂木'"
  },
  {
    "id": "tepco_kikan_167",
    "name": "新多摩",
    "name_original": "新多摩",
    "name_normalized": "新多摩",
    "utility": "TEPCO",
    "voltage_kv": 275,
    "available_kw": 1100000,
    "updated_at": "2025-11-25",
    "lat": 36.52292753658536,
    "lon": 140.15242855365852,
    "matched_source": "cache",
    "confidence": 0.7,
    "notes": "cached source=osm verified=2025-11-26 display='新茂木'"
  },
  {
    "id": "tepco_kikan_168",
    "name": "新坂戸",
    "name_original": "新坂戸",
    "name_normalized": "新坂戸",
    "utility": "TEPCO",
    "voltage_kv": 275,
    "available_kw": 3420000,
    "updated_at": "2025-11-25",
    "lat": 36.52292753658536,
    "lon": 140.15242855365852,
    "matched_source": "cache",
    "confidence": 0.7,
    "notes": "cached source=osm verified=2025-11-26 display='新茂木'"
  },
  {
    "id": "tepco_kikan_169",
    "name": "新所沢",
    "name_original": "新所沢",
    "name_normalized": "新所沢",
    "utility": "TEPCO",
    "voltage_kv": 275,
    "available_kw": 4560000,
    "updated_at": "2025-11-25",
    "lat": 36.52292753658536,
    "lon": 140.15242855365852,
    "matched_source": "cache",
    "confidence": 0.7,
    "notes": "cached source=osm verified=2025-11-26 display='新茂木'"
  },
  {
    "id": "tepco_kikan_170",
    "name": "新飯能",
    "name_original": "新飯能",
    "name_normalized": "新飯能",
    "utility": "TEPCO",
    "voltage_kv": 275,
    "available_kw": 1710000,
    "updated_at": "2025-11-25",
    "lat": 36.52292753658536,
    "lon": 140.15242855365852,
    "matched_source": "cache",
    "confidence": 0.7,
    "notes": "cached source=osm verified=2025-11-26 display='新茂木'"
  },
  {
    "id": "tepco_kikan_171",
    "name": "新豊洲",
    "name_original": "新豊洲",
    "name_normalized": "新豊洲",
    "utility": "TEPCO",
    "voltage_kv": 275,
    "available_kw": 1100000,
    "updated_at": "2025-11-25",
    "lat": 36.52292753658536,
    "lon": 140.15242855365852,
    "matched_source": "cache",
    "confidence": 0.7,
    "notes": "cached source=osm verified=2025-11-26 display='新茂木'"
  },
  {
    "id": "tepco_kikan_172",
    "name": "信濃川",
    "name_original": "信濃川",
    "name_normalized": "信濃川",
    "utility": "TEPCO",
    "voltage_kv": 154,
    "available_kw": 80000,
    "updated_at": "2025-11-25",
    "lat": null,
    "lon": null,
    "matched_source": "unmatched",
    "confidence": 0,
    "notes": "no_match"
  },
  {
    "id": "tepco_tochigi_1",
    "name": "那須野",
    "name_original": "那須野",
    "name_normalized": "那須野",
    "utility": "TEPCO",
    "voltage_kv": 66,
    "available_kw": 0,
    "updated_at": "2025-11-25",
    "lat": 36.93764146666667,
    "lon": 140.03847336666666,
    "matched_source": "cache",
    "confidence": 0.7,
    "notes": "cached source=osm verified=2025-11-26 display='那須野変電所'"
  },
  {
    "id": "tepco_tochigi_2",
    "name": "新栃木",
    "name_original": "新栃木",
    "name_normalized": "新栃木",
    "utility": "TEPCO",
    "voltage_kv": 154,
    "available_kw": 0,
    "updated_at": "2025-11-25",
    "lat": 36.52292753658536,
    "lon": 140.15242855365852,
    "matched_source": "cache",
    "confidence": 0.8,
    "notes": "cached source=osm verified=2025-11-26 display='新茂木'"
  },
  {
    "id": "tepco_tochigi_3",
    "name": "新栃木",
    "name_original": "新栃木",
    "name_normalized": "新栃木",
    "utility": "TEPCO",
    "voltage_kv": 154,
    "available_kw": 0,
    "updated_at": "2025-11-25",
    "lat": 36.52292753658536,
    "lon": 140.15242855365852,
    "matched_source": "cache",
    "confidence": 0.8,
    "notes": "cached source=osm verified=2025-11-26 display='新茂木'"
  },
  {
    "id": "tepco_tochigi_4",
    "name": "河内",
    "name_original": "河内",
    "name_normalized": "河内",
    "utility": "TEPCO",
    "voltage_kv": 66,
    "available_kw": 0,
    "updated_at": "2025-11-25",
    "lat": 36.62412502000001,
    "lon": 139.94050574,
    "matched_source": "cache",
    "confidence": 0.7,
    "notes": "cached source=osm verified=2025-11-26 display='河内変電所'"
  },
  {
    "id": "tepco_tochigi_5",
    "name": "西宇都宮",
    "name_original": "西宇都宮",
    "name_normalized": "西宇都宮",
    "utility": "TEPCO",
    "voltage_kv": 66,
    "available_kw": 0,
    "updated_at": "2025-11-25",
    "lat": 36.58145556666667,
    "lon": 139.82140438888888,
    "matched_source": "cache",
    "confidence": 0.7,
    "notes": "cached source=osm verified=2025-11-26 display='西宇都宮変電所'"
  },
  {
    "id": "tepco_tochigi_6",
    "name": "芳賀",
    "name_original": "芳賀",
    "name_normalized": "芳賀",
    "utility": "TEPCO",
    "voltage_kv": 66,
    "available_kw": 138000,
    "updated_at": "2025-11-25",
    "lat": 36.51435255,
    "lon": 140.0100409375,
    "matched_source": "cache",
    "confidence": 0.7,
    "notes": "cached source=osm verified=2025-11-26 display='芳賀変電所'"
  },
  {
    "id": "tepco_tochigi_7",
    "name": "小山",
    "name_original": "小山",
    "name_normalized": "小山",
    "utility": "TEPCO",
    "voltage_kv": 66,
    "available_kw": 318000,
    "updated_at": "2025-11-25",
    "lat": 36.325418581250005,
    "lon": 139.8163760875,
    "matched_source": "cache",
    "confidence": 0.7,
    "notes": "cached source=osm verified=2025-11-26 display='小山変電所'"
  },
  {
    "id": "tepco_tochigi_8",
    "name": "佐野",
    "name_original": "佐野",
    "name_normalized": "佐野",
    "utility": "TEPCO",
    "voltage_kv": 66,
    "available_kw": 17000,
    "updated_at": "2025-11-25",
    "lat": 36.28032679375,
    "lon": 139.55497730625,
    "matched_source": "cache",
    "confidence": 0.7,
    "notes": "cached source=osm verified=2025-11-26 display='佐野変電所'"
  },
  {
    "id": "tepco_tochigi_9",
    "name": "野木",
    "name_original": "野木",
    "name_normalized": "野木",
    "utility": "TEPCO",
    "voltage_kv": 66,
    "available_kw": 222000,
    "updated_at": "2025-11-25",
    "lat": 36.52292753658536,
    "lon": 140.15242855365852,
    "matched_source": "cache",
    "confidence": 0.7,
    "notes": "cached source=osm verified=2025-11-26 display='新茂木'"
  },
  {
    "id": "tepco_tochigi_10",
    "name": "鬼怒川",
    "name_original": "鬼怒川",
    "name_normalized": "鬼怒川",
    "utility": "TEPCO",
    "voltage_kv": 66,
    "available_kw": 60000,
    "updated_at": "2025-11-25",
    "lat": 36.829360199999996,
    "lon": 139.7134549565217,
    "matched_source": "cache",
    "confidence": 0.7,
    "notes": "cached source=osm verified=2025-11-26 display='鬼怒川変電所'"
  },
  {
    "id": "tepco_tochigi_11",
    "name": "那須野",
    "name_original": "那須野",
    "name_normalized": "那須野",
    "utility": "TEPCO",
    "voltage_kv": 66,
    "available_kw": 0,
    "updated_at": "2025-11-25",
    "lat": 36.93764146666667,
    "lon": 140.03847336666666,
    "matched_source": "cache",
    "confidence": 0.7,
    "notes": "cached source=osm verified=2025-11-26 display='那須野変電所'"
  },
  {
    "id": "tepco_tochigi_12",
    "name": "鬼怒川",
    "name_original": "鬼怒川",
    "name_normalized": "鬼怒川",
    "utility": "TEPCO",
    "voltage_kv": 66,
    "available_kw": 60000,
    "updated_at": "2025-11-25",
    "lat": 36.829360199999996,
    "lon": 139.7134549565217,
    "matched_source": "cache",
    "confidence": 0.7,
    "notes": "cached source=osm verified=2025-11-26 display='鬼怒川変電所'"
  },
  {
    "id": "tepco_tochigi_13",
    "name": "河内",
    "name_original": "河内",
    "name_normalized": "河内",
    "utility": "TEPCO",
    "voltage_kv": 66,
    "available_kw": 0,
    "updated_at": "2025-11-25",
    "lat": 36.62412502000001,
    "lon": 139.94050574,
    "matched_source": "cache",
    "confidence": 0.7,
    "notes": "cached source=osm verified=2025-11-26 display='河内変電所'"
  },
  {
    "id": "tepco_tochigi_14",
    "name": "西宇都宮",
    "name_original": "西宇都宮",
    "name_normalized": "西宇都宮",
    "utility": "TEPCO",
    "voltage_kv": 66,
    "available_kw": 0,
    "updated_at": "2025-11-25",
    "lat": 36.58145556666667,
    "lon": 139.82140438888888,
    "matched_source": "cache",
    "confidence": 0.7,
    "notes": "cached source=osm verified=2025-11-26 display='西宇都宮変電所'"
  },
  {
    "id": "tepco_tochigi_15",
    "name": "芳賀",
    "name_original": "芳賀",
    "name_normalized": "芳賀",
    "utility": "TEPCO",
    "voltage_kv": 66,
    "available_kw": 138000,
    "updated_at": "2025-11-25",
    "lat": 36.51435255,
    "lon": 140.0100409375,
    "matched_source": "cache",
    "confidence": 0.7,
    "notes": "cached source=osm verified=2025-11-26 display='芳賀変電所'"
  },
  {
    "id": "tepco_tochigi_16",
    "name": "小山",
    "name_original": "小山",
    "name_normalized": "小山",
    "utility": "TEPCO",
    "voltage_kv": 66,
    "available_kw": 318000,
    "updated_at": "2025-11-25",
    "lat": 36.325418581250005,
    "lon": 139.8163760875,
    "matched_source": "cache",
    "confidence": 0.7,
    "notes": "cached source=osm verified=2025-11-26 display='小山変電所'"
  },
  {
    "id": "tepco_tochigi_17",
    "name": "佐野",
    "name_original": "佐野",
    "name_normalized": "佐野",
    "utility": "TEPCO",
    "voltage_kv": 66,
    "available_kw": 17000,
    "updated_at": "2025-11-25",
    "lat": 36.28032679375,
    "lon": 139.55497730625,
    "matched_source": "cache",
    "confidence": 0.7,
    "notes": "cached source=osm verified=2025-11-26 display='佐野変電所'"
  },
  {
    "id": "tepco_tochigi_18",
    "name": "野木",
    "name_original": "野木",
    "name_normalized": "野木",
    "utility": "TEPCO",
    "voltage_kv": 66,
    "available_kw": 222000,
    "updated_at": "2025-11-25",
    "lat": 36.52292753658536,
    "lon": 140.15242855365852,
    "matched_source": "cache",
    "confidence": 0.7,
    "notes": "cached source=osm verified=2025-11-26 display='新茂木'"
  },
  {
    "id": "tepco_tochigi_19",
    "name": "箒川変電所",
    "name_original": "箒川変電所",
    "name_normalized": "箒川変電所",
    "utility": "TEPCO",
    "voltage_kv": 22,
    "available_kw": 9000,
    "updated_at": "2025-11-25",
    "lat": 35.61196197142857,
    "lon": 139.46949954285714,
    "matched_source": "cache",
    "confidence": 0.8,
    "notes": "cached source=osm verified=2025-11-26 display='黒川変電所'"
  },
  {
    "id": "tepco_tochigi_20",
    "name": "葛生変電所",
    "name_original": "葛生変電所",
    "name_normalized": "葛生変電所",
    "utility": "TEPCO",
    "voltage_kv": 22,
    "available_kw": 8000,
    "updated_at": "2025-11-25",
    "lat": 36.39535695,
    "lon": 139.6046623375,
    "matched_source": "cache",
    "confidence": 0.9,
    "notes": "cached source=osm verified=2025-11-26 display='葛生変電所'"
  },
  {
    "id": "tepco_tochigi_24",
    "name": "那須湯本",
    "name_original": "那須湯本",
    "name_normalized": "那須湯本",
    "utility": "TEPCO",
    "voltage_kv": 6.6,
    "available_kw": 0,
    "updated_at": "2025-11-25",
    "lat": null,
    "lon": null,
    "matched_source": "unmatched",
    "confidence": 0,
    "notes": "no_match"
  },
  {
    "id": "tepco_tochigi_25",
    "name": "豊原",
    "name_original": "豊原",
    "name_normalized": "豊原",
    "utility": "TEPCO",
    "voltage_kv": 6.6,
    "available_kw": 0,
    "updated_at": "2025-11-25",
    "lat": null,
    "lon": null,
    "matched_source": "unmatched",
    "confidence": 0,
    "notes": "no_match"
  },
  {
    "id": "tepco_tochigi_26",
    "name": "関谷",
    "name_original": "関谷",
    "name_normalized": "関谷",
    "utility": "TEPCO",
    "voltage_kv": 6.6,
    "available_kw": 0,
    "updated_at": "2025-11-25",
    "lat": 36.95086295,
    "lon": 139.88715271,
    "matched_source": "cache",
    "confidence": 0.7,
    "notes": "cached source=osm verified=2025-11-26 display='関谷変電所'"
  },
  {
    "id": "tepco_tochigi_27",
    "name": "川治",
    "name_original": "川治",
    "name_normalized": "川治",
    "utility": "TEPCO",
    "voltage_kv": 6.6,
    "available_kw": 5000,
    "updated_at": "2025-11-25",
    "lat": 36.89450474444445,
    "lon": 139.70198182222225,
    "matched_source": "cache",
    "confidence": 0.7,
    "notes": "cached source=osm verified=2025-11-26 display='川治変電所'"
  },
  {
    "id": "tepco_tochigi_28",
    "name": "稲沢",
    "name_original": "稲沢",
    "name_normalized": "稲沢",
    "utility": "TEPCO",
    "voltage_kv": 6.6,
    "available_kw": 0,
    "updated_at": "2025-11-25",
    "lat": 36.916563233333335,
    "lon": 140.12542270000003,
    "matched_source": "cache",
    "confidence": 0.7,
    "notes": "cached source=osm verified=2025-11-26 display='稲沢変電所'"
  },
  {
    "id": "tepco_tochigi_29",
    "name": "黒磯",
    "name_original": "黒磯",
    "name_normalized": "黒磯",
    "utility": "TEPCO",
    "voltage_kv": 6.6,
    "available_kw": 0,
    "updated_at": "2025-11-25",
    "lat": 36.96671524545454,
    "lon": 140.04161195454546,
    "matched_source": "cache",
    "confidence": 0.7,
    "notes": "cached source=osm verified=2025-11-26 display='黒磯変電所'"
  },
  {
    "id": "tepco_tochigi_30",
    "name": "那須野",
    "name_original": "那須野",
    "name_normalized": "那須野",
    "utility": "TEPCO",
    "voltage_kv": 6.6,
    "available_kw": 0,
    "updated_at": "2025-11-25",
    "lat": 36.93764146666667,
    "lon": 140.03847336666666,
    "matched_source": "cache",
    "confidence": 0.7,
    "notes": "cached source=osm verified=2025-11-26 display='那須野変電所'"
  },
  {
    "id": "tepco_tochigi_31",
    "name": "西富山",
    "name_original": "西富山",
    "name_normalized": "西富山",
    "utility": "TEPCO",
    "voltage_kv": 6.6,
    "available_kw": 3000,
    "updated_at": "2025-11-25",
    "lat": 36.6763458,
    "lon": 137.2095206,
    "matched_source": "cache",
    "confidence": 0.75,
    "notes": "cached source=nominatim verified=2025-11-26 display='南富山変電所, 太郎丸西町二丁目, 富山市, 富山県, 日本'"
  },
  {
    "id": "tepco_tochigi_32",
    "name": "栗山",
    "name_original": "栗山",
    "name_normalized": "栗山",
    "utility": "TEPCO",
    "voltage_kv": 6.6,
    "available_kw": 8000,
    "updated_at": "2025-11-25",
    "lat": 34.0037583,
    "lon": 130.9856982,
    "matched_source": "cache",
    "confidence": 0.75,
    "notes": "cached source=nominatim verified=2025-11-26 display='長府変電所, 長府安養寺四丁目, 下関市, 山口県, 日本'"
  },
  {
    "id": "tepco_tochigi_33",
    "name": "川俣",
    "name_original": "川俣",
    "name_normalized": "川俣",
    "utility": "TEPCO",
    "voltage_kv": 6.6,
    "available_kw": 2000,
    "updated_at": "2025-11-25",
    "lat": 36.8737591,
    "lon": 139.5210931,
    "matched_source": "cache",
    "confidence": 0.75,
    "notes": "cached source=nominatim verified=2025-11-26 display='川俣変電所, 日光市, 栃木県, 日本'"
  },
  {
    "id": "tepco_tochigi_34",
    "name": "大田原",
    "name_original": "大田原",
    "name_normalized": "大田原",
    "utility": "TEPCO",
    "voltage_kv": 6.6,
    "available_kw": 8000,
    "updated_at": "2025-11-25",
    "lat": 35.2937103,
    "lon": 139.1665144,
    "matched_source": "cache",
    "confidence": 0.75,
    "notes": "cached source=nominatim verified=2025-11-26 display='中堀変電所, 成田, 小田原市, 神奈川県, 日本'"
  },
  {
    "id": "tepco_tochigi_35",
    "name": "石上",
    "name_original": "石上",
    "name_normalized": "石上",
    "utility": "TEPCO",
    "voltage_kv": 6.6,
    "available_kw": 0,
    "updated_at": "2025-11-25",
    "lat": 37.1497208,
    "lon": 138.2344671,
    "matched_source": "cache",
    "confidence": 0.75,
    "notes": "cached source=nominatim verified=2025-11-26 display='春日山変電所, 春日野一丁目, 上越市, 新潟県, 日本'"
  },
  {
    "id": "tepco_tochigi_36",
    "name": "矢板",
    "name_original": "矢板",
    "name_normalized": "矢板",
    "utility": "TEPCO",
    "voltage_kv": 6.6,
    "available_kw": 0,
    "updated_at": "2025-11-25",
    "lat": 35.821945,
    "lon": 139.737725,
    "matched_source": "cache",
    "confidence": 0.75,
    "notes": "cached source=nominatim verified=2025-11-26 display='変電所, 岩槻街道, 大字三ツ和, 川口市, 埼玉県, 334-0013, 日本'"
  },
  {
    "id": "tepco_tochigi_37",
    "name": "湯津上",
    "name_original": "湯津上",
    "name_normalized": "湯津上",
    "utility": "TEPCO",
    "voltage_kv": 6.6,
    "available_kw": 0,
    "updated_at": "2025-11-25",
    "lat": 35.0168398,
    "lon": 135.761064,
    "matched_source": "cache",
    "confidence": 0.75,
    "notes": "cached source=nominatim verified=2025-11-26 display='竹間変電所, 東洞院通, 瓦之町, 中京区, 京都市, 京都府, 604-0836, 日本'"
  },
  {
    "id": "tepco_tochigi_38",
    "name": "玉生",
    "name_original": "玉生",
    "name_normalized": "玉生",
    "utility": "TEPCO",
    "voltage_kv": 6.6,
    "available_kw": 0,
    "updated_at": "2025-11-25",
    "lat": 34.949804,
    "lon": 135.7571033,
    "matched_source": "cache",
    "confidence": 0.75,
    "notes": "cached source=nominatim verified=2025-11-26 display='深草変電所, 竹田醍醐田町, 伏見区, 京都市, 京都府, 日本'"
  },
  {
    "id": "tepco_tochigi_39",
    "name": "鬼怒川",
    "name_original": "鬼怒川",
    "name_normalized": "鬼怒川",
    "utility": "TEPCO",
    "voltage_kv": 6.6,
    "available_kw": 9000,
    "updated_at": "2025-11-25",
    "lat": 36.829360199999996,
    "lon": 139.7134549565217,
    "matched_source": "cache",
    "confidence": 0.7,
    "notes": "cached source=osm verified=2025-11-26 display='鬼怒川変電所'"
  },
  {
    "id": "tepco_tochigi_40",
    "name": "所野",
    "name_original": "所野",
    "name_normalized": "所野",
    "utility": "TEPCO",
    "voltage_kv": 6.6,
    "available_kw": 0,
    "updated_at": "2025-11-25",
    "lat": 37.035131,
    "lon": 136.9656123,
    "matched_source": "cache",
    "confidence": 0.75,
    "notes": "cached source=nominatim verified=2025-11-26 display='七尾変電所, 本府中町, 下古府, 七尾市, 石川県, 日本'"
  },
  {
    "id": "tepco_tochigi_41",
    "name": "匠町",
    "name_original": "匠町",
    "name_normalized": "匠町",
    "utility": "TEPCO",
    "voltage_kv": 6.6,
    "available_kw": 13000,
    "updated_at": "2025-11-25",
    "lat": 34.3836213,
    "lon": 132.406354,
    "matched_source": "cache",
    "confidence": 0.75,
    "notes": "cached source=nominatim verified=2025-11-26 display='西広島変電所, 草津東二丁目, 西区, 広島市, 広島県, 日本'"
  },
  {
    "id": "tepco_tochigi_42",
    "name": "中禅寺",
    "name_original": "中禅寺",
    "name_normalized": "中禅寺",
    "utility": "TEPCO",
    "voltage_kv": 6.6,
    "available_kw": 8000,
    "updated_at": "2025-11-25",
    "lat": 35.0342362,
    "lon": 135.7502841,
    "matched_source": "cache",
    "confidence": 0.75,
    "notes": "cached source=nominatim verified=2025-11-26 display='妙蓮寺鐘楼　補修中, 妙蓮寺前町, 上京区, 京都市, 京都府, 日本'"
  },
  {
    "id": "tepco_tochigi_43",
    "name": "馬頭",
    "name_original": "馬頭",
    "name_normalized": "馬頭",
    "utility": "TEPCO",
    "voltage_kv": 6.6,
    "available_kw": 0,
    "updated_at": "2025-11-25",
    "lat": 35.0241319,
    "lon": 135.7523188,
    "matched_source": "cache",
    "confidence": 0.75,
    "notes": "cached source=nominatim verified=2025-11-26 display='堀川変電所, 東堀川通, 武衛陣町, 主計町, 上京区, 京都市, 京都府, 602-8058, 日本'"
  },
  {
    "id": "tepco_tochigi_44",
    "name": "上川井",
    "name_original": "上川井",
    "name_normalized": "上川井",
    "utility": "TEPCO",
    "voltage_kv": 6.6,
    "available_kw": 0,
    "updated_at": "2025-11-25",
    "lat": 35.0016777,
    "lon": 135.7231103,
    "matched_source": "cache",
    "confidence": 0.75,
    "notes": "cached source=nominatim verified=2025-11-26 display='西院変電所, 西院日照町, 右京区, 京都市, 京都府, 616-0000, 日本'"
  },
  {
    "id": "tepco_tochigi_45",
    "name": "喜連川",
    "name_original": "喜連川",
    "name_normalized": "喜連川",
    "utility": "TEPCO",
    "voltage_kv": 6.6,
    "available_kw": 0,
    "updated_at": "2025-11-25",
    "lat": 34.7762182,
    "lon": 138.0258606,
    "matched_source": "cache",
    "confidence": 0.75,
    "notes": "cached source=nominatim verified=2025-11-26 display='中部電)葛川変電所, 旧東海道, 葛川, 上張, 掛川市, 静岡県, 436-0020, 日本'"
  },
  {
    "id": "tepco_tochigi_46",
    "name": "今市",
    "name_original": "今市",
    "name_normalized": "今市",
    "utility": "TEPCO",
    "voltage_kv": 6.6,
    "available_kw": 7000,
    "updated_at": "2025-11-25",
    "lat": 35.2633169,
    "lon": 139.8932741,
    "matched_source": "cache",
    "confidence": 0.75,
    "notes": "cached source=nominatim verified=2025-11-26 display='変電所, 小櫃佐貫停車場線, 佐貫, 富津市, 千葉県, 293-0058, 日本'"
  },
  {
    "id": "tepco_tochigi_47",
    "name": "氏家",
    "name_original": "氏家",
    "name_normalized": "氏家",
    "utility": "TEPCO",
    "voltage_kv": 6.6,
    "available_kw": 3000,
    "updated_at": "2025-11-25",
    "lat": 34.949804,
    "lon": 135.7571033,
    "matched_source": "cache",
    "confidence": 0.75,
    "notes": "cached source=nominatim verified=2025-11-26 display='深草変電所, 竹田醍醐田町, 伏見区, 京都市, 京都府, 日本'"
  },
  {
    "id": "tepco_tochigi_48",
    "name": "小室",
    "name_original": "小室",
    "name_normalized": "小室",
    "utility": "TEPCO",
    "voltage_kv": 6.6,
    "available_kw": 0,
    "updated_at": "2025-11-25",
    "lat": 35.7793855,
    "lon": 140.0728163,
    "matched_source": "cache",
    "confidence": 0.75,
    "notes": "cached source=nominatim verified=2025-11-26 display='変電所, 夏見小室線, 小野田町, 船橋市, 千葉県, 274-0082, 日本'"
  },
  {
    "id": "tepco_tochigi_49",
    "name": "大沢",
    "name_original": "大沢",
    "name_normalized": "大沢",
    "utility": "TEPCO",
    "voltage_kv": 6.6,
    "available_kw": 0,
    "updated_at": "2025-11-25",
    "lat": 34.8136115,
    "lon": 135.7198272,
    "matched_source": "cache",
    "confidence": 0.75,
    "notes": "cached source=nominatim verified=2025-11-26 display='変電所 建設 予定地, 杉二丁目, 枚方市, 大阪府, 日本'"
  },
  {
    "id": "tepco_tochigi_50",
    "name": "上殿",
    "name_original": "上殿",
    "name_normalized": "上殿",
    "utility": "TEPCO",
    "voltage_kv": 6.6,
    "available_kw": 7000,
    "updated_at": "2025-11-25",
    "lat": 34.949804,
    "lon": 135.7571033,
    "matched_source": "cache",
    "confidence": 0.75,
    "notes": "cached source=nominatim verified=2025-11-26 display='深草変電所, 竹田醍醐田町, 伏見区, 京都市, 京都府, 日本'"
  },
  {
    "id": "tepco_tochigi_51",
    "name": "通洞",
    "name_original": "通洞",
    "name_normalized": "通洞",
    "utility": "TEPCO",
    "voltage_kv": 6.6,
    "available_kw": 2000,
    "updated_at": "2025-11-25",
    "lat": 36.6322476,
    "lon": 139.4366819,
    "matched_source": "cache",
    "confidence": 0.75,
    "notes": "cached source=nominatim verified=2025-11-26 display='通洞変電所, 銅街道, 足尾町通洞, 日光市, 栃木県, 321-1514, 日本'"
  },
  {
    "id": "tepco_tochigi_52",
    "name": "烏山",
    "name_original": "烏山",
    "name_normalized": "烏山",
    "utility": "TEPCO",
    "voltage_kv": 6.6,
    "available_kw": 0,
    "updated_at": "2025-11-25",
    "lat": 34.0037583,
    "lon": 130.9856982,
    "matched_source": "cache",
    "confidence": 0.75,
    "notes": "cached source=nominatim verified=2025-11-26 display='長府変電所, 長府安養寺四丁目, 下関市, 山口県, 日本'"
  },
  {
    "id": "tepco_tochigi_53",
    "name": "徳次郎",
    "name_original": "徳次郎",
    "name_normalized": "徳次郎",
    "utility": "TEPCO",
    "voltage_kv": 6.6,
    "available_kw": 0,
    "updated_at": "2025-11-25",
    "lat": 31.5657248,
    "lon": 130.5572672,
    "matched_source": "cache",
    "confidence": 0.75,
    "notes": "cached source=nominatim verified=2025-11-26 display='鴨池変電所, 国道225号, 与次郎二丁目, 与次郎, 鹿児島市, 鹿児島県, 892-8677, 日本'"
  },
  {
    "id": "tepco_tochigi_54",
    "name": "宝積寺",
    "name_original": "宝積寺",
    "name_normalized": "宝積寺",
    "utility": "TEPCO",
    "voltage_kv": 6.6,
    "available_kw": 0,
    "updated_at": "2025-11-25",
    "lat": 34.949804,
    "lon": 135.7571033,
    "matched_source": "cache",
    "confidence": 0.75,
    "notes": "cached source=nominatim verified=2025-11-26 display='深草変電所, 竹田醍醐田町, 伏見区, 京都市, 京都府, 日本'"
  },
  {
    "id": "tepco_tochigi_55",
    "name": "河内",
    "name_original": "河内",
    "name_normalized": "河内",
    "utility": "TEPCO",
    "voltage_kv": 6.6,
    "available_kw": 0,
    "updated_at": "2025-11-25",
    "lat": 36.62412502000001,
    "lon": 139.94050574,
    "matched_source": "cache",
    "confidence": 0.7,
    "notes": "cached source=osm verified=2025-11-26 display='河内変電所'"
  },
  {
    "id": "tepco_tochigi_56",
    "name": "岩曽",
    "name_original": "岩曽",
    "name_normalized": "岩曽",
    "utility": "TEPCO",
    "voltage_kv": 6.6,
    "available_kw": 19000,
    "updated_at": "2025-11-25",
    "lat": 36.59237334444444,
    "lon": 139.90721556666665,
    "matched_source": "cache",
    "confidence": 0.7,
    "notes": "cached source=osm verified=2025-11-26 display='岩曽変電所'"
  },
  {
    "id": "tepco_tochigi_57",
    "name": "宝木",
    "name_original": "宝木",
    "name_normalized": "宝木",
    "utility": "TEPCO",
    "voltage_kv": 6.6,
    "available_kw": 11000,
    "updated_at": "2025-11-25",
    "lat": 35.0016777,
    "lon": 135.7231103,
    "matched_source": "cache",
    "confidence": 0.75,
    "notes": "cached source=nominatim verified=2025-11-26 display='西院変電所, 西院日照町, 右京区, 京都市, 京都府, 616-0000, 日本'"
  },
  {
    "id": "tepco_tochigi_58",
    "name": "鹿沼",
    "name_original": "鹿沼",
    "name_normalized": "鹿沼",
    "utility": "TEPCO",
    "voltage_kv": 6.6,
    "available_kw": 0,
    "updated_at": "2025-11-25",
    "lat": 35.577815,
    "lon": 139.5665067,
    "matched_source": "cache",
    "confidence": 0.75,
    "notes": "cached source=nominatim verified=2025-11-26 display='鷺沼変電所, 境橋, 鷺沼三丁目, 鷺沼, 宮前区, 川崎市, 神奈川県, 216-0011, 日本'"
  },
  {
    "id": "tepco_tochigi_59",
    "name": "茂木",
    "name_original": "茂木",
    "name_normalized": "茂木",
    "utility": "TEPCO",
    "voltage_kv": 6.6,
    "available_kw": 11000,
    "updated_at": "2025-11-25",
    "lat": 35.0168398,
    "lon": 135.761064,
    "matched_source": "cache",
    "confidence": 0.75,
    "notes": "cached source=nominatim verified=2025-11-26 display='竹間変電所, 東洞院通, 瓦之町, 中京区, 京都市, 京都府, 604-0836, 日本'"
  },
  {
    "id": "tepco_tochigi_60",
    "name": "市塙",
    "name_original": "市塙",
    "name_normalized": "市塙",
    "utility": "TEPCO",
    "voltage_kv": 6.6,
    "available_kw": 0,
    "updated_at": "2025-11-25",
    "lat": 35.691827,
    "lon": 139.5597918,
    "matched_source": "cache",
    "confidence": 0.75,
    "notes": "cached source=nominatim verified=2025-11-26 display='三鷹変電所前, 三鷹通り, 上連雀六丁目, 三鷹市, 東京都, 181-8001, 日本'"
  },
  {
    "id": "tepco_tochigi_61",
    "name": "下高根沢",
    "name_original": "下高根沢",
    "name_normalized": "下高根沢",
    "utility": "TEPCO",
    "voltage_kv": 6.6,
    "available_kw": 5000,
    "updated_at": "2025-11-25",
    "lat": 36.5582876625,
    "lon": 140.0162971375,
    "matched_source": "cache",
    "confidence": 0.7,
    "notes": "cached source=osm verified=2025-11-26 display='下高根沢変電所'"
  },
  {
    "id": "tepco_tochigi_62",
    "name": "清原",
    "name_original": "清原",
    "name_normalized": "清原",
    "utility": "TEPCO",
    "voltage_kv": 6.6,
    "available_kw": 6000,
    "updated_at": "2025-11-25",
    "lat": 36.5514539,
    "lon": 139.9831026,
    "matched_source": "cache",
    "confidence": 0.75,
    "notes": "cached source=nominatim verified=2025-11-26 display='清原変電所, 清原中央通り, 宇都宮清原工業団地, 清原工業団地, 宇都宮市, 栃木県, 321-3222, 日本'"
  },
  {
    "id": "tepco_tochigi_63",
    "name": "平出",
    "name_original": "平出",
    "name_normalized": "平出",
    "utility": "TEPCO",
    "voltage_kv": 6.6,
    "available_kw": 14000,
    "updated_at": "2025-11-25",
    "lat": 36.5540502,
    "lon": 139.9403739,
    "matched_source": "cache",
    "confidence": 0.75,
    "notes": "cached source=nominatim verified=2025-11-26 display='平出変電所, 新4号国道, 陽東八丁目, 宇都宮市, 栃木県, 321-0903, 日本'"
  },
  {
    "id": "tepco_tochigi_64",
    "name": "戸祭",
    "name_original": "戸祭",
    "name_normalized": "戸祭",
    "utility": "TEPCO",
    "voltage_kv": 6.6,
    "available_kw": 19000,
    "updated_at": "2025-11-25",
    "lat": 35.0016777,
    "lon": 135.7231103,
    "matched_source": "cache",
    "confidence": 0.75,
    "notes": "cached source=nominatim verified=2025-11-26 display='西院変電所, 西院日照町, 右京区, 京都市, 京都府, 616-0000, 日本'"
  },
  {
    "id": "tepco_tochigi_65",
    "name": "三の沢",
    "name_original": "三の沢",
    "name_normalized": "三の沢",
    "utility": "TEPCO",
    "voltage_kv": 6.6,
    "available_kw": 14000,
    "updated_at": "2025-11-25",
    "lat": 36.56493184,
    "lon": 139.8536644,
    "matched_source": "cache",
    "confidence": 0.7,
    "notes": "cached source=osm verified=2025-11-26 display='三の沢変電所'"
  },
  {
    "id": "tepco_tochigi_66",
    "name": "粟野",
    "name_original": "粟野",
    "name_normalized": "粟野",
    "utility": "TEPCO",
    "voltage_kv": 6.6,
    "available_kw": 0,
    "updated_at": "2025-11-25",
    "lat": 34.9687222,
    "lon": 138.3811703,
    "matched_source": "cache",
    "confidence": 0.75,
    "notes": "cached source=nominatim verified=2025-11-26 display='川辺変電所, 江川町通り, 川辺町二丁目, 葵区, 静岡市, 静岡県, 420-8602, 日本'"
  },
  {
    "id": "tepco_tochigi_67",
    "name": "平石",
    "name_original": "平石",
    "name_normalized": "平石",
    "utility": "TEPCO",
    "voltage_kv": 6.6,
    "available_kw": 16000,
    "updated_at": "2025-11-25",
    "lat": 35.0016777,
    "lon": 135.7231103,
    "matched_source": "cache",
    "confidence": 0.75,
    "notes": "cached source=nominatim verified=2025-11-26 display='西院変電所, 西院日照町, 右京区, 京都市, 京都府, 616-0000, 日本'"
  },
  {
    "id": "tepco_tochigi_68",
    "name": "宿郷",
    "name_original": "宿郷",
    "name_normalized": "宿郷",
    "utility": "TEPCO",
    "voltage_kv": 6.6,
    "available_kw": 19000,
    "updated_at": "2025-11-25",
    "lat": 34.9763575,
    "lon": 138.3905996,
    "matched_source": "cache",
    "confidence": 0.75,
    "notes": "cached source=nominatim verified=2025-11-26 display='中部電力株式会社　日吉変電所, 伝馬町通り, 横田町, 葵区, 静岡市, 静岡県, 420-8602, 日本'"
  },
  {
    "id": "tepco_tochigi_69",
    "name": "宇都宮",
    "name_original": "宇都宮",
    "name_normalized": "宇都宮",
    "utility": "TEPCO",
    "voltage_kv": 6.6,
    "available_kw": 9000,
    "updated_at": "2025-11-25",
    "lat": 34.949804,
    "lon": 135.7571033,
    "matched_source": "cache",
    "confidence": 0.75,
    "notes": "cached source=nominatim verified=2025-11-26 display='深草変電所, 竹田醍醐田町, 伏見区, 京都市, 京都府, 日本'"
  },
  {
    "id": "tepco_tochigi_70",
    "name": "馬場通",
    "name_original": "馬場通",
    "name_normalized": "馬場通",
    "utility": "TEPCO",
    "voltage_kv": 6.6,
    "available_kw": 19000,
    "updated_at": "2025-11-25",
    "lat": 35.0360431,
    "lon": 135.7797322,
    "matched_source": "cache",
    "confidence": 0.75,
    "notes": "cached source=nominatim verified=2025-11-26 display='田中変電所, 東大路通, 田中里ノ内町, 左京区, 京都市, 京都府, 606-8236, 日本'"
  },
  {
    "id": "tepco_tochigi_71",
    "name": "簗瀬町",
    "name_original": "簗瀬町",
    "name_normalized": "簗瀬町",
    "utility": "TEPCO",
    "voltage_kv": 6.6,
    "available_kw": 19000,
    "updated_at": "2025-11-25",
    "lat": 35.0054608,
    "lon": 135.7698579,
    "matched_source": "cache",
    "confidence": 0.75,
    "notes": "cached source=nominatim verified=2025-11-26 display='河原町変電所, 八之船入通, 塩屋町, 中京区, 京都市, 京都府, 604-8023, 日本'"
  },
  {
    "id": "tepco_kikan_90",
    "name": "港北線(港北~荏田)",
    "name_original": "港北線（港北～荏田）",
    "name_normalized": "港北線(港北~荏田)",
    "utility": "TEPCO",
    "voltage_kv": 275,
    "available_kw": 0,
    "updated_at": "2025-11-25",
    "lat": 35.0241319,
    "lon": 135.7523188,
    "matched_source": "cache",
    "confidence": 0.75,
    "notes": "cached source=nominatim verified=2025-11-26 display='堀川変電所, 東堀川通, 武衛陣町, 主計町, 上京区, 京都市, 京都府, 602-8058, 日本'"
  },
  {
    "id": "tepco_kikan_142",
    "name": "新福島",
    "name_original": "新福島",
    "name_normalized": "新福島",
    "utility": "TEPCO",
    "voltage_kv": 275,
    "available_kw": 0,
    "updated_at": "2025-11-25",
    "lat": 36.52292753658536,
    "lon": 140.15242855365852,
    "matched_source": "cache",
    "confidence": 0.7,
    "notes": "cached source=osm verified=2025-11-26 display='新茂木'"
  },
  {
    "id": "tepco_kikan_143",
    "name": "新福島",
    "name_original": "新福島",
    "name_normalized": "新福島",
    "utility": "TEPCO",
    "voltage_kv": 66,
    "available_kw": 0,
    "updated_at": "2025-11-25",
    "lat": 36.52292753658536,
    "lon": 140.15242855365852,
    "matched_source": "cache",
    "confidence": 0.7,
    "notes": "cached source=osm verified=2025-11-26 display='新茂木'"
  },
  {
    "id": "tepco_kikan_144",
    "name": "新茂木",
    "name_original": "新茂木",
    "name_normalized": "新茂木",
    "utility": "TEPCO",
    "voltage_kv": 275,
    "available_kw": 0,
    "updated_at": "2025-11-25",
    "lat": 36.52292753658536,
    "lon": 140.15242855365852,
    "matched_source": "cache",
    "confidence": 0.9,
    "notes": "cached source=osm verified=2025-11-26 display='新茂木'"
  },
  {
    "id": "tepco_kikan_145",
    "name": "新栃木",
    "name_original": "新栃木",
    "name_normalized": "新栃木",
    "utility": "TEPCO",
    "voltage_kv": 275,
    "available_kw": 0,
    "updated_at": "2025-11-25",
    "lat": 36.52292753658536,
    "lon": 140.15242855365852,
    "matched_source": "cache",
    "confidence": 0.8,
    "notes": "cached source=osm verified=2025-11-26 display='新茂木'"
  },
  {
    "id": "tepco_kikan_146",
    "name": "新栃木",
    "name_original": "新栃木",
    "name_normalized": "新栃木",
    "utility": "TEPCO",
    "voltage_kv": 154,
    "available_kw": 0,
    "updated_at": "2025-11-25",
    "lat": 36.52292753658536,
    "lon": 140.15242855365852,
    "matched_source": "cache",
    "confidence": 0.8,
    "notes": "cached source=osm verified=2025-11-26 display='新茂木'"
  },
  {
    "id": "tepco_kikan_147",
    "name": "新栃木",
    "name_original": "新栃木",
    "name_normalized": "新栃木",
    "utility": "TEPCO",
    "voltage_kv": 154,
    "available_kw": 0,
    "updated_at": "2025-11-25",
    "lat": 36.52292753658536,
    "lon": 140.15242855365852,
    "matched_source": "cache",
    "confidence": 0.8,
    "notes": "cached source=osm verified=2025-11-26 display='新茂木'"
  },
  {
    "id": "tepco_kikan_148",
    "name": "新筑波",
    "name_original": "新筑波",
    "name_normalized": "新筑波",
    "utility": "TEPCO",
    "voltage_kv": 154,
    "available_kw": 0,
    "updated_at": "2025-11-25",
    "lat": 36.52292753658536,
    "lon": 140.15242855365852,
    "matched_source": "cache",
    "confidence": 0.7,
    "notes": "cached source=osm verified=2025-11-26 display='新茂木'"
  },
  {
    "id": "tepco_kikan_149",
    "name": "新古河",
    "name_original": "新古河",
    "name_normalized": "新古河",
    "utility": "TEPCO",
    "voltage_kv": 275,
    "available_kw": 5130000,
    "updated_at": "2025-11-25",
    "lat": 36.52292753658536,
    "lon": 140.15242855365852,
    "matched_source": "cache",
    "confidence": 0.7,
    "notes": "cached source=osm verified=2025-11-26 display='新茂木'"
  },
  {
    "id": "tepco_kikan_150",
    "name": "東群馬",
    "name_original": "東群馬",
    "name_normalized": "東群馬",
    "utility": "TEPCO",
    "voltage_kv": 275,
    "available_kw": 0,
    "updated_at": "2025-11-25",
    "lat": 36.579331958974365,
    "lon": 139.22354018717948,
    "matched_source": "cache",
    "confidence": 0.7,
    "notes": "cached source=osm verified=2025-11-26 display='東群馬変電所'"
  },
  {
    "id": "tepco_kikan_151",
    "name": "新新田",
    "name_original": "新新田",
    "name_normalized": "新新田",
    "utility": "TEPCO",
    "voltage_kv": 275,
    "available_kw": 800000,
    "updated_at": "2025-11-25",
    "lat": 36.52292753658536,
    "lon": 140.15242855365852,
    "matched_source": "cache",
    "confidence": 0.7,
    "notes": "cached source=osm verified=2025-11-26 display='新茂木'"
  },
  {
    "id": "tepco_kikan_152",
    "name": "新岡部",
    "name_original": "新岡部",
    "name_normalized": "新岡部",
    "utility": "TEPCO",
    "voltage_kv": 275,
    "available_kw": 1000000,
    "updated_at": "2025-11-25",
    "lat": 36.52292753658536,
    "lon": 140.15242855365852,
    "matched_source": "cache",
    "confidence": 0.7,
    "notes": "cached source=osm verified=2025-11-26 display='新茂木'"
  },
  {
    "id": "tepco_kikan_153",
    "name": "新岡部",
    "name_original": "新岡部",
    "name_normalized": "新岡部",
    "utility": "TEPCO",
    "voltage_kv": 154,
    "available_kw": 0,
    "updated_at": "2025-11-25",
    "lat": 36.52292753658536,
    "lon": 140.15242855365852,
    "matched_source": "cache",
    "confidence": 0.7,
    "notes": "cached source=osm verified=2025-11-26 display='新茂木'"
  },
  {
    "id": "tepco_kikan_154",
    "name": "新榛名",
    "name_original": "新榛名",
    "name_normalized": "新榛名",
    "utility": "TEPCO",
    "voltage_kv": 275,
    "available_kw": 0,
    "updated_at": "2025-11-25",
    "lat": 36.54779360967741,
    "lon": 138.83314955483874,
    "matched_source": "cache",
    "confidence": 0.9,
    "notes": "cached source=osm verified=2025-11-26 display='新榛名'"
  },
  {
    "id": "tepco_kikan_155",
    "name": "新信濃",
    "name_original": "新信濃",
    "name_normalized": "新信濃",
    "utility": "TEPCO",
    "voltage_kv": 275,
    "available_kw": 0,
    "updated_at": "2025-11-25",
    "lat": 36.52292753658536,
    "lon": 140.15242855365852,
    "matched_source": "cache",
    "confidence": 0.7,
    "notes": "cached source=osm verified=2025-11-26 display='新茂木'"
  },
  {
    "id": "tepco_kikan_156",
    "name": "新木更津",
    "name_original": "新木更津",
    "name_normalized": "新木更津",
    "utility": "TEPCO",
    "voltage_kv": 275,
    "available_kw": 0,
    "updated_at": "2025-11-25",
    "lat": 35.34313251111111,
    "lon": 140.02732282777777,
    "matched_source": "cache",
    "confidence": 0.7,
    "notes": "cached source=osm verified=2025-11-26 display='新木更津変電所'"
  },
  {
    "id": "tepco_kikan_157",
    "name": "房総",
    "name_original": "房総",
    "name_normalized": "房総",
    "utility": "TEPCO",
    "voltage_kv": 275,
    "available_kw": 0,
    "updated_at": "2025-11-25",
    "lat": 35.4991757047619,
    "lon": 140.16646302380954,
    "matched_source": "cache",
    "confidence": 0.7,
    "notes": "cached source=osm verified=2025-11-26 display='房総変電所'"
  },
  {
    "id": "tepco_kikan_158",
    "name": "新佐原",
    "name_original": "新佐原",
    "name_normalized": "新佐原",
    "utility": "TEPCO",
    "voltage_kv": 275,
    "available_kw": 0,
    "updated_at": "2025-11-25",
    "lat": 36.52292753658536,
    "lon": 140.15242855365852,
    "matched_source": "cache",
    "confidence": 0.7,
    "notes": "cached source=osm verified=2025-11-26 display='新茂木'"
  },
  {
    "id": "tepco_kikan_159",
    "name": "新京葉",
    "name_original": "新京葉",
    "name_normalized": "新京葉",
    "utility": "TEPCO",
    "voltage_kv": 275,
    "available_kw": 2400000,
    "updated_at": "2025-11-25",
    "lat": 36.52292753658536,
    "lon": 140.15242855365852,
    "matched_source": "cache",
    "confidence": 0.7,
    "notes": "cached source=osm verified=2025-11-26 display='新茂木'"
  },
  {
    "id": "tepco_kikan_160",
    "name": "新野田",
    "name_original": "新野田",
    "name_normalized": "新野田",
    "utility": "TEPCO",
    "voltage_kv": 275,
    "available_kw": 5130000,
    "updated_at": "2025-11-25",
    "lat": 36.52292753658536,
    "lon": 140.15242855365852,
    "matched_source": "cache",
    "confidence": 0.7,
    "notes": "cached source=osm verified=2025-11-26 display='新茂木'"
  },
  {
    "id": "tepco_kikan_161",
    "name": "東山梨",
    "name_original": "東山梨",
    "name_normalized": "東山梨",
    "utility": "TEPCO",
    "voltage_kv": 154,
    "available_kw": 1023000,
    "updated_at": "2025-11-25",
    "lat": 35.5905059488889,
    "lon": 138.79996020444443,
    "matched_source": "cache",
    "confidence": 0.7,
    "notes": "cached source=osm verified=2025-11-26 display='東山梨変電所'"
  },
  {
    "id": "tepco_kikan_162",
    "name": "新富士",
    "name_original": "新富士",
    "name_normalized": "新富士",
    "utility": "TEPCO",
    "voltage_kv": 154,
    "available_kw": 0,
    "updated_at": "2025-11-25",
    "lat": 36.52292753658536,
    "lon": 140.15242855365852,
    "matched_source": "cache",
    "confidence": 0.7,
    "notes": "cached source=osm verified=2025-11-26 display='新茂木'"
  },
  {
    "id": "tepco_kikan_163",
    "name": "新富士",
    "name_original": "新富士",
    "name_normalized": "新富士",
    "utility": "TEPCO",
    "voltage_kv": 154,
    "available_kw": 490000,
    "updated_at": "2025-11-25",
    "lat": 36.52292753658536,
    "lon": 140.15242855365852,
    "matched_source": "cache",
    "confidence": 0.7,
    "notes": "cached source=osm verified=2025-11-26 display='新茂木'"
  },
  {
    "id": "tepco_kikan_164",
    "name": "新富士",
    "name_original": "新富士",
    "name_normalized": "新富士",
    "utility": "TEPCO",
    "voltage_kv": 275,
    "available_kw": 220000,
    "updated_at": "2025-11-25",
    "lat": 36.52292753658536,
    "lon": 140.15242855365852,
    "matched_source": "cache",
    "confidence": 0.7,
    "notes": "cached source=osm verified=2025-11-26 display='新茂木'"
  },
  {
    "id": "tepco_kikan_165",
    "name": "新秦野",
    "name_original": "新秦野",
    "name_normalized": "新秦野",
    "utility": "TEPCO",
    "voltage_kv": 275,
    "available_kw": 0,
    "updated_at": "2025-11-25",
    "lat": 36.52292753658536,
    "lon": 140.15242855365852,
    "matched_source": "cache",
    "confidence": 0.7,
    "notes": "cached source=osm verified=2025-11-26 display='新茂木'"
  },
  {
    "id": "tepco_kikan_166",
    "name": "新秦野",
    "name_original": "新秦野",
    "name_normalized": "新秦野",
    "utility": "TEPCO",
    "voltage_kv": 154,
    "available_kw": 1710000,
    "updated_at": "2025-11-25",
    "lat": 36.52292753658536,
    "lon": 140.15242855365852,
    "matched_source": "cache",
    "confidence": 0.7,
    "notes": "cached source=osm verified=2025-11-26 display='新茂木'"
  },
  {
    "id": "tepco_kikan_167",
    "name": "新多摩",
    "name_original": "新多摩",
    "name_normalized": "新多摩",
    "utility": "TEPCO",
    "voltage_kv": 275,
    "available_kw": 1100000,
    "updated_at": "2025-11-25",
    "lat": 36.52292753658536,
    "lon": 140.15242855365852,
    "matched_source": "cache",
    "confidence": 0.7,
    "notes": "cached source=osm verified=2025-11-26 display='新茂木'"
  },
  {
    "id": "tepco_kikan_168",
    "name": "新坂戸",
    "name_original": "新坂戸",
    "name_normalized": "新坂戸",
    "utility": "TEPCO",
    "voltage_kv": 275,
    "available_kw": 3420000,
    "updated_at": "2025-11-25",
    "lat": 36.52292753658536,
    "lon": 140.15242855365852,
    "matched_source": "cache",
    "confidence": 0.7,
    "notes": "cached source=osm verified=2025-11-26 display='新茂木'"
  },
  {
    "id": "tepco_kikan_169",
    "name": "新所沢",
    "name_original": "新所沢",
    "name_normalized": "新所沢",
    "utility": "TEPCO",
    "voltage_kv": 275,
    "available_kw": 4560000,
    "updated_at": "2025-11-25",
    "lat": 36.52292753658536,
    "lon": 140.15242855365852,
    "matched_source": "cache",
    "confidence": 0.7,
    "notes": "cached source=osm verified=2025-11-26 display='新茂木'"
  },
  {
    "id": "tepco_kikan_170",
    "name": "新飯能",
    "name_original": "新飯能",
    "name_normalized": "新飯能",
    "utility": "TEPCO",
    "voltage_kv": 275,
    "available_kw": 1710000,
    "updated_at": "2025-11-25",
    "lat": 36.52292753658536,
    "lon": 140.15242855365852,
    "matched_source": "cache",
    "confidence": 0.7,
    "notes": "cached source=osm verified=2025-11-26 display='新茂木'"
  },
  {
    "id": "tepco_kikan_171",
    "name": "新豊洲",
    "name_original": "新豊洲",
    "name_normalized": "新豊洲",
    "utility": "TEPCO",
    "voltage_kv": 275,
    "available_kw": 1100000,
    "updated_at": "2025-11-25",
    "lat": 36.52292753658536,
    "lon": 140.15242855365852,
    "matched_source": "cache",
    "confidence": 0.7,
    "notes": "cached source=osm verified=2025-11-26 display='新茂木'"
  },
  {
    "id": "tepco_kikan_172",
    "name": "信濃川",
    "name_original": "信濃川",
    "name_normalized": "信濃川",
    "utility": "TEPCO",
    "voltage_kv": 154,
    "available_kw": 80000,
    "updated_at": "2025-11-25",
    "lat": 35.0241319,
    "lon": 135.7523188,
    "matched_source": "nominatim",
    "confidence": 0.75,
    "notes": "query='信濃川 変電所' display='堀川変電所, 東堀川通, 武衛陣町, 主計町, 上京区, 京都市, 京都府, 602-8058, 日本'"
  },
  {
    "id": "tepco_tochigi_1",
    "name": "那須野",
    "name_original": "那須野",
    "name_normalized": "那須野",
    "utility": "TEPCO",
    "voltage_kv": 66,
    "available_kw": 0,
    "updated_at": "2025-11-25",
    "lat": 36.93764146666667,
    "lon": 140.03847336666666,
    "matched_source": "cache",
    "confidence": 0.7,
    "notes": "cached source=osm verified=2025-11-26 display='那須野変電所'"
  },
  {
    "id": "tepco_tochigi_2",
    "name": "新栃木",
    "name_original": "新栃木",
    "name_normalized": "新栃木",
    "utility": "TEPCO",
    "voltage_kv": 154,
    "available_kw": 0,
    "updated_at": "2025-11-25",
    "lat": 36.52292753658536,
    "lon": 140.15242855365852,
    "matched_source": "cache",
    "confidence": 0.8,
    "notes": "cached source=osm verified=2025-11-26 display='新茂木'"
  },
  {
    "id": "tepco_tochigi_3",
    "name": "新栃木",
    "name_original": "新栃木",
    "name_normalized": "新栃木",
    "utility": "TEPCO",
    "voltage_kv": 154,
    "available_kw": 0,
    "updated_at": "2025-11-25",
    "lat": 36.52292753658536,
    "lon": 140.15242855365852,
    "matched_source": "cache",
    "confidence": 0.8,
    "notes": "cached source=osm verified=2025-11-26 display='新茂木'"
  },
  {
    "id": "tepco_tochigi_4",
    "name": "河内",
    "name_original": "河内",
    "name_normalized": "河内",
    "utility": "TEPCO",
    "voltage_kv": 66,
    "available_kw": 0,
    "updated_at": "2025-11-25",
    "lat": 36.62412502000001,
    "lon": 139.94050574,
    "matched_source": "cache",
    "confidence": 0.7,
    "notes": "cached source=osm verified=2025-11-26 display='河内変電所'"
  },
  {
    "id": "tepco_tochigi_5",
    "name": "西宇都宮",
    "name_original": "西宇都宮",
    "name_normalized": "西宇都宮",
    "utility": "TEPCO",
    "voltage_kv": 66,
    "available_kw": 0,
    "updated_at": "2025-11-25",
    "lat": 36.58145556666667,
    "lon": 139.82140438888888,
    "matched_source": "cache",
    "confidence": 0.7,
    "notes": "cached source=osm verified=2025-11-26 display='西宇都宮変電所'"
  },
  {
    "id": "tepco_tochigi_6",
    "name": "芳賀",
    "name_original": "芳賀",
    "name_normalized": "芳賀",
    "utility": "TEPCO",
    "voltage_kv": 66,
    "available_kw": 138000,
    "updated_at": "2025-11-25",
    "lat": 36.51435255,
    "lon": 140.0100409375,
    "matched_source": "cache",
    "confidence": 0.7,
    "notes": "cached source=osm verified=2025-11-26 display='芳賀変電所'"
  },
  {
    "id": "tepco_tochigi_7",
    "name": "小山",
    "name_original": "小山",
    "name_normalized": "小山",
    "utility": "TEPCO",
    "voltage_kv": 66,
    "available_kw": 318000,
    "updated_at": "2025-11-25",
    "lat": 36.325418581250005,
    "lon": 139.8163760875,
    "matched_source": "cache",
    "confidence": 0.7,
    "notes": "cached source=osm verified=2025-11-26 display='小山変電所'"
  },
  {
    "id": "tepco_tochigi_8",
    "name": "佐野",
    "name_original": "佐野",
    "name_normalized": "佐野",
    "utility": "TEPCO",
    "voltage_kv": 66,
    "available_kw": 17000,
    "updated_at": "2025-11-25",
    "lat": 36.28032679375,
    "lon": 139.55497730625,
    "matched_source": "cache",
    "confidence": 0.7,
    "notes": "cached source=osm verified=2025-11-26 display='佐野変電所'"
  },
  {
    "id": "tepco_tochigi_9",
    "name": "野木",
    "name_original": "野木",
    "name_normalized": "野木",
    "utility": "TEPCO",
    "voltage_kv": 66,
    "available_kw": 222000,
    "updated_at": "2025-11-25",
    "lat": 36.52292753658536,
    "lon": 140.15242855365852,
    "matched_source": "cache",
    "confidence": 0.7,
    "notes": "cached source=osm verified=2025-11-26 display='新茂木'"
  },
  {
    "id": "tepco_tochigi_10",
    "name": "鬼怒川",
    "name_original": "鬼怒川",
    "name_normalized": "鬼怒川",
    "utility": "TEPCO",
    "voltage_kv": 66,
    "available_kw": 60000,
    "updated_at": "2025-11-25",
    "lat": 36.829360199999996,
    "lon": 139.7134549565217,
    "matched_source": "cache",
    "confidence": 0.7,
    "notes": "cached source=osm verified=2025-11-26 display='鬼怒川変電所'"
  },
  {
    "id": "tepco_tochigi_11",
    "name": "那須野",
    "name_original": "那須野",
    "name_normalized": "那須野",
    "utility": "TEPCO",
    "voltage_kv": 66,
    "available_kw": 0,
    "updated_at": "2025-11-25",
    "lat": 36.93764146666667,
    "lon": 140.03847336666666,
    "matched_source": "cache",
    "confidence": 0.7,
    "notes": "cached source=osm verified=2025-11-26 display='那須野変電所'"
  },
  {
    "id": "tepco_tochigi_12",
    "name": "鬼怒川",
    "name_original": "鬼怒川",
    "name_normalized": "鬼怒川",
    "utility": "TEPCO",
    "voltage_kv": 66,
    "available_kw": 60000,
    "updated_at": "2025-11-25",
    "lat": 36.829360199999996,
    "lon": 139.7134549565217,
    "matched_source": "cache",
    "confidence": 0.7,
    "notes": "cached source=osm verified=2025-11-26 display='鬼怒川変電所'"
  },
  {
    "id": "tepco_tochigi_13",
    "name": "河内",
    "name_original": "河内",
    "name_normalized": "河内",
    "utility": "TEPCO",
    "voltage_kv": 66,
    "available_kw": 0,
    "updated_at": "2025-11-25",
    "lat": 36.62412502000001,
    "lon": 139.94050574,
    "matched_source": "cache",
    "confidence": 0.7,
    "notes": "cached source=osm verified=2025-11-26 display='河内変電所'"
  },
  {
    "id": "tepco_tochigi_14",
    "name": "西宇都宮",
    "name_original": "西宇都宮",
    "name_normalized": "西宇都宮",
    "utility": "TEPCO",
    "voltage_kv": 66,
    "available_kw": 0,
    "updated_at": "2025-11-25",
    "lat": 36.58145556666667,
    "lon": 139.82140438888888,
    "matched_source": "cache",
    "confidence": 0.7,
    "notes": "cached source=osm verified=2025-11-26 display='西宇都宮変電所'"
  },
  {
    "id": "tepco_tochigi_15",
    "name": "芳賀",
    "name_original": "芳賀",
    "name_normalized": "芳賀",
    "utility": "TEPCO",
    "voltage_kv": 66,
    "available_kw": 138000,
    "updated_at": "2025-11-25",
    "lat": 36.51435255,
    "lon": 140.0100409375,
    "matched_source": "cache",
    "confidence": 0.7,
    "notes": "cached source=osm verified=2025-11-26 display='芳賀変電所'"
  },
  {
    "id": "tepco_tochigi_16",
    "name": "小山",
    "name_original": "小山",
    "name_normalized": "小山",
    "utility": "TEPCO",
    "voltage_kv": 66,
    "available_kw": 318000,
    "updated_at": "2025-11-25",
    "lat": 36.325418581250005,
    "lon": 139.8163760875,
    "matched_source": "cache",
    "confidence": 0.7,
    "notes": "cached source=osm verified=2025-11-26 display='小山変電所'"
  },
  {
    "id": "tepco_tochigi_17",
    "name": "佐野",
    "name_original": "佐野",
    "name_normalized": "佐野",
    "utility": "TEPCO",
    "voltage_kv": 66,
    "available_kw": 17000,
    "updated_at": "2025-11-25",
    "lat": 36.28032679375,
    "lon": 139.55497730625,
    "matched_source": "cache",
    "confidence": 0.7,
    "notes": "cached source=osm verified=2025-11-26 display='佐野変電所'"
  },
  {
    "id": "tepco_tochigi_18",
    "name": "野木",
    "name_original": "野木",
    "name_normalized": "野木",
    "utility": "TEPCO",
    "voltage_kv": 66,
    "available_kw": 222000,
    "updated_at": "2025-11-25",
    "lat": 36.52292753658536,
    "lon": 140.15242855365852,
    "matched_source": "cache",
    "confidence": 0.7,
    "notes": "cached source=osm verified=2025-11-26 display='新茂木'"
  },
  {
    "id": "tepco_tochigi_19",
    "name": "箒川変電所",
    "name_original": "箒川変電所",
    "name_normalized": "箒川変電所",
    "utility": "TEPCO",
    "voltage_kv": 22,
    "available_kw": 9000,
    "updated_at": "2025-11-25",
    "lat": 35.61196197142857,
    "lon": 139.46949954285714,
    "matched_source": "cache",
    "confidence": 0.8,
    "notes": "cached source=osm verified=2025-11-26 display='黒川変電所'"
  },
  {
    "id": "tepco_tochigi_20",
    "name": "葛生変電所",
    "name_original": "葛生変電所",
    "name_normalized": "葛生変電所",
    "utility": "TEPCO",
    "voltage_kv": 22,
    "available_kw": 8000,
    "updated_at": "2025-11-25",
    "lat": 36.39535695,
    "lon": 139.6046623375,
    "matched_source": "cache",
    "confidence": 0.9,
    "notes": "cached source=osm verified=2025-11-26 display='葛生変電所'"
  },
  {
    "id": "tepco_tochigi_24",
    "name": "那須湯本",
    "name_original": "那須湯本",
    "name_normalized": "那須湯本",
    "utility": "TEPCO",
    "voltage_kv": 6.6,
    "available_kw": 0,
    "updated_at": "2025-11-25",
    "lat": 35.0241319,
    "lon": 135.7523188,
    "matched_source": "nominatim",
    "confidence": 0.75,
    "notes": "query='那須湯本 変電所' display='堀川変電所, 東堀川通, 武衛陣町, 主計町, 上京区, 京都市, 京都府, 602-8058, 日本'"
  },
  {
    "id": "tepco_tochigi_25",
    "name": "豊原",
    "name_original": "豊原",
    "name_normalized": "豊原",
    "utility": "TEPCO",
    "voltage_kv": 6.6,
    "available_kw": 0,
    "updated_at": "2025-11-25",
    "lat": 35.5884256,
    "lon": 134.7355174,
    "matched_source": "nominatim",
    "confidence": 0.75,
    "notes": "query='豊原 変電所' display='竹野変電所, 市場, 豊岡市, 兵庫県, 日本'"
  },
  {
    "id": "tepco_tochigi_26",
    "name": "関谷",
    "name_original": "関谷",
    "name_normalized": "関谷",
    "utility": "TEPCO",
    "voltage_kv": 6.6,
    "available_kw": 0,
    "updated_at": "2025-11-25",
    "lat": 36.95086295,
    "lon": 139.88715271,
    "matched_source": "cache",
    "confidence": 0.7,
    "notes": "cached source=osm verified=2025-11-26 display='関谷変電所'"
  },
  {
    "id": "tepco_tochigi_27",
    "name": "川治",
    "name_original": "川治",
    "name_normalized": "川治",
    "utility": "TEPCO",
    "voltage_kv": 6.6,
    "available_kw": 5000,
    "updated_at": "2025-11-25",
    "lat": 36.89450474444445,
    "lon": 139.70198182222225,
    "matched_source": "cache",
    "confidence": 0.7,
    "notes": "cached source=osm verified=2025-11-26 display='川治変電所'"
  },
  {
    "id": "tepco_tochigi_28",
    "name": "稲沢",
    "name_original": "稲沢",
    "name_normalized": "稲沢",
    "utility": "TEPCO",
    "voltage_kv": 6.6,
    "available_kw": 0,
    "updated_at": "2025-11-25",
    "lat": 36.916563233333335,
    "lon": 140.12542270000003,
    "matched_source": "cache",
    "confidence": 0.7,
    "notes": "cached source=osm verified=2025-11-26 display='稲沢変電所'"
  },
  {
    "id": "tepco_tochigi_29",
    "name": "黒磯",
    "name_original": "黒磯",
    "name_normalized": "黒磯",
    "utility": "TEPCO",
    "voltage_kv": 6.6,
    "available_kw": 0,
    "updated_at": "2025-11-25",
    "lat": 36.96671524545454,
    "lon": 140.04161195454546,
    "matched_source": "cache",
    "confidence": 0.7,
    "notes": "cached source=osm verified=2025-11-26 display='黒磯変電所'"
  },
  {
    "id": "tepco_tochigi_30",
    "name": "那須野",
    "name_original": "那須野",
    "name_normalized": "那須野",
    "utility": "TEPCO",
    "voltage_kv": 6.6,
    "available_kw": 0,
    "updated_at": "2025-11-25",
    "lat": 36.93764146666667,
    "lon": 140.03847336666666,
    "matched_source": "cache",
    "confidence": 0.7,
    "notes": "cached source=osm verified=2025-11-26 display='那須野変電所'"
  },
  {
    "id": "tepco_tochigi_31",
    "name": "西富山",
    "name_original": "西富山",
    "name_normalized": "西富山",
    "utility": "TEPCO",
    "voltage_kv": 6.6,
    "available_kw": 3000,
    "updated_at": "2025-11-25",
    "lat": 36.6763458,
    "lon": 137.2095206,
    "matched_source": "cache",
    "confidence": 0.75,
    "notes": "cached source=nominatim verified=2025-11-26 display='南富山変電所, 太郎丸西町二丁目, 富山市, 富山県, 日本'"
  },
  {
    "id": "tepco_tochigi_32",
    "name": "栗山",
    "name_original": "栗山",
    "name_normalized": "栗山",
    "utility": "TEPCO",
    "voltage_kv": 6.6,
    "available_kw": 8000,
    "updated_at": "2025-11-25",
    "lat": 34.0037583,
    "lon": 130.9856982,
    "matched_source": "cache",
    "confidence": 0.75,
    "notes": "cached source=nominatim verified=2025-11-26 display='長府変電所, 長府安養寺四丁目, 下関市, 山口県, 日本'"
  },
  {
    "id": "tepco_tochigi_33",
    "name": "川俣",
    "name_original": "川俣",
    "name_normalized": "川俣",
    "utility": "TEPCO",
    "voltage_kv": 6.6,
    "available_kw": 2000,
    "updated_at": "2025-11-25",
    "lat": 36.8737591,
    "lon": 139.5210931,
    "matched_source": "cache",
    "confidence": 0.75,
    "notes": "cached source=nominatim verified=2025-11-26 display='川俣変電所, 日光市, 栃木県, 日本'"
  },
  {
    "id": "tepco_tochigi_34",
    "name": "大田原",
    "name_original": "大田原",
    "name_normalized": "大田原",
    "utility": "TEPCO",
    "voltage_kv": 6.6,
    "available_kw": 8000,
    "updated_at": "2025-11-25",
    "lat": 35.2937103,
    "lon": 139.1665144,
    "matched_source": "cache",
    "confidence": 0.75,
    "notes": "cached source=nominatim verified=2025-11-26 display='中堀変電所, 成田, 小田原市, 神奈川県, 日本'"
  },
  {
    "id": "tepco_tochigi_35",
    "name": "石上",
    "name_original": "石上",
    "name_normalized": "石上",
    "utility": "TEPCO",
    "voltage_kv": 6.6,
    "available_kw": 0,
    "updated_at": "2025-11-25",
    "lat": 37.1497208,
    "lon": 138.2344671,
    "matched_source": "cache",
    "confidence": 0.75,
    "notes": "cached source=nominatim verified=2025-11-26 display='春日山変電所, 春日野一丁目, 上越市, 新潟県, 日本'"
  },
  {
    "id": "tepco_tochigi_36",
    "name": "矢板",
    "name_original": "矢板",
    "name_normalized": "矢板",
    "utility": "TEPCO",
    "voltage_kv": 6.6,
    "available_kw": 0,
    "updated_at": "2025-11-25",
    "lat": 35.821945,
    "lon": 139.737725,
    "matched_source": "cache",
    "confidence": 0.75,
    "notes": "cached source=nominatim verified=2025-11-26 display='変電所, 岩槻街道, 大字三ツ和, 川口市, 埼玉県, 334-0013, 日本'"
  },
  {
    "id": "tepco_tochigi_37",
    "name": "湯津上",
    "name_original": "湯津上",
    "name_normalized": "湯津上",
    "utility": "TEPCO",
    "voltage_kv": 6.6,
    "available_kw": 0,
    "updated_at": "2025-11-25",
    "lat": 35.0168398,
    "lon": 135.761064,
    "matched_source": "cache",
    "confidence": 0.75,
    "notes": "cached source=nominatim verified=2025-11-26 display='竹間変電所, 東洞院通, 瓦之町, 中京区, 京都市, 京都府, 604-0836, 日本'"
  },
  {
    "id": "tepco_tochigi_38",
    "name": "玉生",
    "name_original": "玉生",
    "name_normalized": "玉生",
    "utility": "TEPCO",
    "voltage_kv": 6.6,
    "available_kw": 0,
    "updated_at": "2025-11-25",
    "lat": 34.949804,
    "lon": 135.7571033,
    "matched_source": "cache",
    "confidence": 0.75,
    "notes": "cached source=nominatim verified=2025-11-26 display='深草変電所, 竹田醍醐田町, 伏見区, 京都市, 京都府, 日本'"
  },
  {
    "id": "tepco_tochigi_39",
    "name": "鬼怒川",
    "name_original": "鬼怒川",
    "name_normalized": "鬼怒川",
    "utility": "TEPCO",
    "voltage_kv": 6.6,
    "available_kw": 9000,
    "updated_at": "2025-11-25",
    "lat": 36.829360199999996,
    "lon": 139.7134549565217,
    "matched_source": "cache",
    "confidence": 0.7,
    "notes": "cached source=osm verified=2025-11-26 display='鬼怒川変電所'"
  },
  {
    "id": "tepco_tochigi_40",
    "name": "所野",
    "name_original": "所野",
    "name_normalized": "所野",
    "utility": "TEPCO",
    "voltage_kv": 6.6,
    "available_kw": 0,
    "updated_at": "2025-11-25",
    "lat": 37.035131,
    "lon": 136.9656123,
    "matched_source": "cache",
    "confidence": 0.75,
    "notes": "cached source=nominatim verified=2025-11-26 display='七尾変電所, 本府中町, 下古府, 七尾市, 石川県, 日本'"
  },
  {
    "id": "tepco_tochigi_41",
    "name": "匠町",
    "name_original": "匠町",
    "name_normalized": "匠町",
    "utility": "TEPCO",
    "voltage_kv": 6.6,
    "available_kw": 13000,
    "updated_at": "2025-11-25",
    "lat": 34.3836213,
    "lon": 132.406354,
    "matched_source": "cache",
    "confidence": 0.75,
    "notes": "cached source=nominatim verified=2025-11-26 display='西広島変電所, 草津東二丁目, 西区, 広島市, 広島県, 日本'"
  },
  {
    "id": "tepco_tochigi_42",
    "name": "中禅寺",
    "name_original": "中禅寺",
    "name_normalized": "中禅寺",
    "utility": "TEPCO",
    "voltage_kv": 6.6,
    "available_kw": 8000,
    "updated_at": "2025-11-25",
    "lat": 35.0342362,
    "lon": 135.7502841,
    "matched_source": "cache",
    "confidence": 0.75,
    "notes": "cached source=nominatim verified=2025-11-26 display='妙蓮寺鐘楼　補修中, 妙蓮寺前町, 上京区, 京都市, 京都府, 日本'"
  },
  {
    "id": "tepco_tochigi_43",
    "name": "馬頭",
    "name_original": "馬頭",
    "name_normalized": "馬頭",
    "utility": "TEPCO",
    "voltage_kv": 6.6,
    "available_kw": 0,
    "updated_at": "2025-11-25",
    "lat": 35.0241319,
    "lon": 135.7523188,
    "matched_source": "cache",
    "confidence": 0.75,
    "notes": "cached source=nominatim verified=2025-11-26 display='堀川変電所, 東堀川通, 武衛陣町, 主計町, 上京区, 京都市, 京都府, 602-8058, 日本'"
  },
  {
    "id": "tepco_tochigi_44",
    "name": "上川井",
    "name_original": "上川井",
    "name_normalized": "上川井",
    "utility": "TEPCO",
    "voltage_kv": 6.6,
    "available_kw": 0,
    "updated_at": "2025-11-25",
    "lat": 35.0016777,
    "lon": 135.7231103,
    "matched_source": "cache",
    "confidence": 0.75,
    "notes": "cached source=nominatim verified=2025-11-26 display='西院変電所, 西院日照町, 右京区, 京都市, 京都府, 616-0000, 日本'"
  },
  {
    "id": "tepco_tochigi_45",
    "name": "喜連川",
    "name_original": "喜連川",
    "name_normalized": "喜連川",
    "utility": "TEPCO",
    "voltage_kv": 6.6,
    "available_kw": 0,
    "updated_at": "2025-11-25",
    "lat": 34.7762182,
    "lon": 138.0258606,
    "matched_source": "cache",
    "confidence": 0.75,
    "notes": "cached source=nominatim verified=2025-11-26 display='中部電)葛川変電所, 旧東海道, 葛川, 上張, 掛川市, 静岡県, 436-0020, 日本'"
  },
  {
    "id": "tepco_tochigi_46",
    "name": "今市",
    "name_original": "今市",
    "name_normalized": "今市",
    "utility": "TEPCO",
    "voltage_kv": 6.6,
    "available_kw": 7000,
    "updated_at": "2025-11-25",
    "lat": 35.2633169,
    "lon": 139.8932741,
    "matched_source": "cache",
    "confidence": 0.75,
    "notes": "cached source=nominatim verified=2025-11-26 display='変電所, 小櫃佐貫停車場線, 佐貫, 富津市, 千葉県, 293-0058, 日本'"
  },
  {
    "id": "tepco_tochigi_47",
    "name": "氏家",
    "name_original": "氏家",
    "name_normalized": "氏家",
    "utility": "TEPCO",
    "voltage_kv": 6.6,
    "available_kw": 3000,
    "updated_at": "2025-11-25",
    "lat": 34.949804,
    "lon": 135.7571033,
    "matched_source": "cache",
    "confidence": 0.75,
    "notes": "cached source=nominatim verified=2025-11-26 display='深草変電所, 竹田醍醐田町, 伏見区, 京都市, 京都府, 日本'"
  },
  {
    "id": "tepco_tochigi_48",
    "name": "小室",
    "name_original": "小室",
    "name_normalized": "小室",
    "utility": "TEPCO",
    "voltage_kv": 6.6,
    "available_kw": 0,
    "updated_at": "2025-11-25",
    "lat": 35.7793855,
    "lon": 140.0728163,
    "matched_source": "cache",
    "confidence": 0.75,
    "notes": "cached source=nominatim verified=2025-11-26 display='変電所, 夏見小室線, 小野田町, 船橋市, 千葉県, 274-0082, 日本'"
  },
  {
    "id": "tepco_tochigi_49",
    "name": "大沢",
    "name_original": "大沢",
    "name_normalized": "大沢",
    "utility": "TEPCO",
    "voltage_kv": 6.6,
    "available_kw": 0,
    "updated_at": "2025-11-25",
    "lat": 34.8136115,
    "lon": 135.7198272,
    "matched_source": "cache",
    "confidence": 0.75,
    "notes": "cached source=nominatim verified=2025-11-26 display='変電所 建設 予定地, 杉二丁目, 枚方市, 大阪府, 日本'"
  },
  {
    "id": "tepco_tochigi_50",
    "name": "上殿",
    "name_original": "上殿",
    "name_normalized": "上殿",
    "utility": "TEPCO",
    "voltage_kv": 6.6,
    "available_kw": 7000,
    "updated_at": "2025-11-25",
    "lat": 34.949804,
    "lon": 135.7571033,
    "matched_source": "cache",
    "confidence": 0.75,
    "notes": "cached source=nominatim verified=2025-11-26 display='深草変電所, 竹田醍醐田町, 伏見区, 京都市, 京都府, 日本'"
  },
  {
    "id": "tepco_tochigi_51",
    "name": "通洞",
    "name_original": "通洞",
    "name_normalized": "通洞",
    "utility": "TEPCO",
    "voltage_kv": 6.6,
    "available_kw": 2000,
    "updated_at": "2025-11-25",
    "lat": 36.6322476,
    "lon": 139.4366819,
    "matched_source": "cache",
    "confidence": 0.75,
    "notes": "cached source=nominatim verified=2025-11-26 display='通洞変電所, 銅街道, 足尾町通洞, 日光市, 栃木県, 321-1514, 日本'"
  },
  {
    "id": "tepco_tochigi_52",
    "name": "烏山",
    "name_original": "烏山",
    "name_normalized": "烏山",
    "utility": "TEPCO",
    "voltage_kv": 6.6,
    "available_kw": 0,
    "updated_at": "2025-11-25",
    "lat": 34.0037583,
    "lon": 130.9856982,
    "matched_source": "cache",
    "confidence": 0.75,
    "notes": "cached source=nominatim verified=2025-11-26 display='長府変電所, 長府安養寺四丁目, 下関市, 山口県, 日本'"
  },
  {
    "id": "tepco_tochigi_53",
    "name": "徳次郎",
    "name_original": "徳次郎",
    "name_normalized": "徳次郎",
    "utility": "TEPCO",
    "voltage_kv": 6.6,
    "available_kw": 0,
    "updated_at": "2025-11-25",
    "lat": 31.5657248,
    "lon": 130.5572672,
    "matched_source": "cache",
    "confidence": 0.75,
    "notes": "cached source=nominatim verified=2025-11-26 display='鴨池変電所, 国道225号, 与次郎二丁目, 与次郎, 鹿児島市, 鹿児島県, 892-8677, 日本'"
  },
  {
    "id": "tepco_tochigi_54",
    "name": "宝積寺",
    "name_original": "宝積寺",
    "name_normalized": "宝積寺",
    "utility": "TEPCO",
    "voltage_kv": 6.6,
    "available_kw": 0,
    "updated_at": "2025-11-25",
    "lat": 34.949804,
    "lon": 135.7571033,
    "matched_source": "cache",
    "confidence": 0.75,
    "notes": "cached source=nominatim verified=2025-11-26 display='深草変電所, 竹田醍醐田町, 伏見区, 京都市, 京都府, 日本'"
  },
  {
    "id": "tepco_tochigi_55",
    "name": "河内",
    "name_original": "河内",
    "name_normalized": "河内",
    "utility": "TEPCO",
    "voltage_kv": 6.6,
    "available_kw": 0,
    "updated_at": "2025-11-25",
    "lat": 36.62412502000001,
    "lon": 139.94050574,
    "matched_source": "cache",
    "confidence": 0.7,
    "notes": "cached source=osm verified=2025-11-26 display='河内変電所'"
  },
  {
    "id": "tepco_tochigi_56",
    "name": "岩曽",
    "name_original": "岩曽",
    "name_normalized": "岩曽",
    "utility": "TEPCO",
    "voltage_kv": 6.6,
    "available_kw": 19000,
    "updated_at": "2025-11-25",
    "lat": 36.59237334444444,
    "lon": 139.90721556666665,
    "matched_source": "cache",
    "confidence": 0.7,
    "notes": "cached source=osm verified=2025-11-26 display='岩曽変電所'"
  },
  {
    "id": "tepco_tochigi_57",
    "name": "宝木",
    "name_original": "宝木",
    "name_normalized": "宝木",
    "utility": "TEPCO",
    "voltage_kv": 6.6,
    "available_kw": 11000,
    "updated_at": "2025-11-25",
    "lat": 35.0016777,
    "lon": 135.7231103,
    "matched_source": "cache",
    "confidence": 0.75,
    "notes": "cached source=nominatim verified=2025-11-26 display='西院変電所, 西院日照町, 右京区, 京都市, 京都府, 616-0000, 日本'"
  },
  {
    "id": "tepco_tochigi_58",
    "name": "鹿沼",
    "name_original": "鹿沼",
    "name_normalized": "鹿沼",
    "utility": "TEPCO",
    "voltage_kv": 6.6,
    "available_kw": 0,
    "updated_at": "2025-11-25",
    "lat": 35.577815,
    "lon": 139.5665067,
    "matched_source": "cache",
    "confidence": 0.75,
    "notes": "cached source=nominatim verified=2025-11-26 display='鷺沼変電所, 境橋, 鷺沼三丁目, 鷺沼, 宮前区, 川崎市, 神奈川県, 216-0011, 日本'"
  },
  {
    "id": "tepco_tochigi_59",
    "name": "茂木",
    "name_original": "茂木",
    "name_normalized": "茂木",
    "utility": "TEPCO",
    "voltage_kv": 6.6,
    "available_kw": 11000,
    "updated_at": "2025-11-25",
    "lat": 35.0168398,
    "lon": 135.761064,
    "matched_source": "cache",
    "confidence": 0.75,
    "notes": "cached source=nominatim verified=2025-11-26 display='竹間変電所, 東洞院通, 瓦之町, 中京区, 京都市, 京都府, 604-0836, 日本'"
  },
  {
    "id": "tepco_tochigi_60",
    "name": "市塙",
    "name_original": "市塙",
    "name_normalized": "市塙",
    "utility": "TEPCO",
    "voltage_kv": 6.6,
    "available_kw": 0,
    "updated_at": "2025-11-25",
    "lat": 35.691827,
    "lon": 139.5597918,
    "matched_source": "cache",
    "confidence": 0.75,
    "notes": "cached source=nominatim verified=2025-11-26 display='三鷹変電所前, 三鷹通り, 上連雀六丁目, 三鷹市, 東京都, 181-8001, 日本'"
  },
  {
    "id": "tepco_tochigi_61",
    "name": "下高根沢",
    "name_original": "下高根沢",
    "name_normalized": "下高根沢",
    "utility": "TEPCO",
    "voltage_kv": 6.6,
    "available_kw": 5000,
    "updated_at": "2025-11-25",
    "lat": 36.5582876625,
    "lon": 140.0162971375,
    "matched_source": "cache",
    "confidence": 0.7,
    "notes": "cached source=osm verified=2025-11-26 display='下高根沢変電所'"
  },
  {
    "id": "tepco_tochigi_62",
    "name": "清原",
    "name_original": "清原",
    "name_normalized": "清原",
    "utility": "TEPCO",
    "voltage_kv": 6.6,
    "available_kw": 6000,
    "updated_at": "2025-11-25",
    "lat": 36.5514539,
    "lon": 139.9831026,
    "matched_source": "cache",
    "confidence": 0.75,
    "notes": "cached source=nominatim verified=2025-11-26 display='清原変電所, 清原中央通り, 宇都宮清原工業団地, 清原工業団地, 宇都宮市, 栃木県, 321-3222, 日本'"
  },
  {
    "id": "tepco_tochigi_63",
    "name": "平出",
    "name_original": "平出",
    "name_normalized": "平出",
    "utility": "TEPCO",
    "voltage_kv": 6.6,
    "available_kw": 14000,
    "updated_at": "2025-11-25",
    "lat": 36.5540502,
    "lon": 139.9403739,
    "matched_source": "cache",
    "confidence": 0.75,
    "notes": "cached source=nominatim verified=2025-11-26 display='平出変電所, 新4号国道, 陽東八丁目, 宇都宮市, 栃木県, 321-0903, 日本'"
  },
  {
    "id": "tepco_tochigi_64",
    "name": "戸祭",
    "name_original": "戸祭",
    "name_normalized": "戸祭",
    "utility": "TEPCO",
    "voltage_kv": 6.6,
    "available_kw": 19000,
    "updated_at": "2025-11-25",
    "lat": 35.0016777,
    "lon": 135.7231103,
    "matched_source": "cache",
    "confidence": 0.75,
    "notes": "cached source=nominatim verified=2025-11-26 display='西院変電所, 西院日照町, 右京区, 京都市, 京都府, 616-0000, 日本'"
  },
  {
    "id": "tepco_tochigi_65",
    "name": "三の沢",
    "name_original": "三の沢",
    "name_normalized": "三の沢",
    "utility": "TEPCO",
    "voltage_kv": 6.6,
    "available_kw": 14000,
    "updated_at": "2025-11-25",
    "lat": 36.56493184,
    "lon": 139.8536644,
    "matched_source": "cache",
    "confidence": 0.7,
    "notes": "cached source=osm verified=2025-11-26 display='三の沢変電所'"
  },
  {
    "id": "tepco_tochigi_66",
    "name": "粟野",
    "name_original": "粟野",
    "name_normalized": "粟野",
    "utility": "TEPCO",
    "voltage_kv": 6.6,
    "available_kw": 0,
    "updated_at": "2025-11-25",
    "lat": 34.9687222,
    "lon": 138.3811703,
    "matched_source": "cache",
    "confidence": 0.75,
    "notes": "cached source=nominatim verified=2025-11-26 display='川辺変電所, 江川町通り, 川辺町二丁目, 葵区, 静岡市, 静岡県, 420-8602, 日本'"
  },
  {
    "id": "tepco_tochigi_67",
    "name": "平石",
    "name_original": "平石",
    "name_normalized": "平石",
    "utility": "TEPCO",
    "voltage_kv": 6.6,
    "available_kw": 16000,
    "updated_at": "2025-11-25",
    "lat": 35.0016777,
    "lon": 135.7231103,
    "matched_source": "cache",
    "confidence": 0.75,
    "notes": "cached source=nominatim verified=2025-11-26 display='西院変電所, 西院日照町, 右京区, 京都市, 京都府, 616-0000, 日本'"
  },
  {
    "id": "tepco_tochigi_68",
    "name": "宿郷",
    "name_original": "宿郷",
    "name_normalized": "宿郷",
    "utility": "TEPCO",
    "voltage_kv": 6.6,
    "available_kw": 19000,
    "updated_at": "2025-11-25",
    "lat": 34.9763575,
    "lon": 138.3905996,
    "matched_source": "cache",
    "confidence": 0.75,
    "notes": "cached source=nominatim verified=2025-11-26 display='中部電力株式会社　日吉変電所, 伝馬町通り, 横田町, 葵区, 静岡市, 静岡県, 420-8602, 日本'"
  },
  {
    "id": "tepco_tochigi_69",
    "name": "宇都宮",
    "name_original": "宇都宮",
    "name_normalized": "宇都宮",
    "utility": "TEPCO",
    "voltage_kv": 6.6,
    "available_kw": 9000,
    "updated_at": "2025-11-25",
    "lat": 34.949804,
    "lon": 135.7571033,
    "matched_source": "cache",
    "confidence": 0.75,
    "notes": "cached source=nominatim verified=2025-11-26 display='深草変電所, 竹田醍醐田町, 伏見区, 京都市, 京都府, 日本'"
  },
  {
    "id": "tepco_tochigi_70",
    "name": "馬場通",
    "name_original": "馬場通",
    "name_normalized": "馬場通",
    "utility": "TEPCO",
    "voltage_kv": 6.6,
    "available_kw": 19000,
    "updated_at": "2025-11-25",
    "lat": 35.0360431,
    "lon": 135.7797322,
    "matched_source": "cache",
    "confidence": 0.75,
    "notes": "cached source=nominatim verified=2025-11-26 display='田中変電所, 東大路通, 田中里ノ内町, 左京区, 京都市, 京都府, 606-8236, 日本'"
  },
  {
    "id": "tepco_tochigi_71",
    "name": "簗瀬町",
    "name_original": "簗瀬町",
    "name_normalized": "簗瀬町",
    "utility": "TEPCO",
    "voltage_kv": 6.6,
    "available_kw": 19000,
    "updated_at": "2025-11-25",
    "lat": 35.0054608,
    "lon": 135.7698579,
    "matched_source": "cache",
    "confidence": 0.75,
    "notes": "cached source=nominatim verified=2025-11-26 display='河原町変電所, 八之船入通, 塩屋町, 中京区, 京都市, 京都府, 604-8023, 日本'"
  },
  {
    "id": "tepco_kikan_90",
    "name": "港北線(港北~荏田)",
    "name_original": "港北線（港北～荏田）",
    "name_normalized": "港北線(港北~荏田)",
    "utility": "TEPCO",
    "voltage_kv": 275,
    "available_kw": 0,
    "updated_at": "2025-11-25",
    "lat": 35.0241319,
    "lon": 135.7523188,
    "matched_source": "cache",
    "confidence": 0.75,
    "notes": "cached source=nominatim verified=2025-11-26 display='堀川変電所, 東堀川通, 武衛陣町, 主計町, 上京区, 京都市, 京都府, 602-8058, 日本'"
  },
  {
    "id": "tepco_kikan_142",
    "name": "新福島",
    "name_original": "新福島",
    "name_normalized": "新福島",
    "utility": "TEPCO",
    "voltage_kv": 275,
    "available_kw": 0,
    "updated_at": "2025-11-25",
    "lat": 36.52292753658536,
    "lon": 140.15242855365852,
    "matched_source": "cache",
    "confidence": 0.7,
    "notes": "cached source=osm verified=2025-11-26 display='新茂木'"
  },
  {
    "id": "tepco_kikan_143",
    "name": "新福島",
    "name_original": "新福島",
    "name_normalized": "新福島",
    "utility": "TEPCO",
    "voltage_kv": 66,
    "available_kw": 0,
    "updated_at": "2025-11-25",
    "lat": 36.52292753658536,
    "lon": 140.15242855365852,
    "matched_source": "cache",
    "confidence": 0.7,
    "notes": "cached source=osm verified=2025-11-26 display='新茂木'"
  },
  {
    "id": "tepco_kikan_144",
    "name": "新茂木",
    "name_original": "新茂木",
    "name_normalized": "新茂木",
    "utility": "TEPCO",
    "voltage_kv": 275,
    "available_kw": 0,
    "updated_at": "2025-11-25",
    "lat": 36.52292753658536,
    "lon": 140.15242855365852,
    "matched_source": "cache",
    "confidence": 0.9,
    "notes": "cached source=osm verified=2025-11-26 display='新茂木'"
  },
  {
    "id": "tepco_kikan_145",
    "name": "新栃木",
    "name_original": "新栃木",
    "name_normalized": "新栃木",
    "utility": "TEPCO",
    "voltage_kv": 275,
    "available_kw": 0,
    "updated_at": "2025-11-25",
    "lat": 36.52292753658536,
    "lon": 140.15242855365852,
    "matched_source": "cache",
    "confidence": 0.8,
    "notes": "cached source=osm verified=2025-11-26 display='新茂木'"
  },
  {
    "id": "tepco_kikan_146",
    "name": "新栃木",
    "name_original": "新栃木",
    "name_normalized": "新栃木",
    "utility": "TEPCO",
    "voltage_kv": 154,
    "available_kw": 0,
    "updated_at": "2025-11-25",
    "lat": 36.52292753658536,
    "lon": 140.15242855365852,
    "matched_source": "cache",
    "confidence": 0.8,
    "notes": "cached source=osm verified=2025-11-26 display='新茂木'"
  },
  {
    "id": "tepco_kikan_147",
    "name": "新栃木",
    "name_original": "新栃木",
    "name_normalized": "新栃木",
    "utility": "TEPCO",
    "voltage_kv": 154,
    "available_kw": 0,
    "updated_at": "2025-11-25",
    "lat": 36.52292753658536,
    "lon": 140.15242855365852,
    "matched_source": "cache",
    "confidence": 0.8,
    "notes": "cached source=osm verified=2025-11-26 display='新茂木'"
  },
  {
    "id": "tepco_kikan_148",
    "name": "新筑波",
    "name_original": "新筑波",
    "name_normalized": "新筑波",
    "utility": "TEPCO",
    "voltage_kv": 154,
    "available_kw": 0,
    "updated_at": "2025-11-25",
    "lat": 36.52292753658536,
    "lon": 140.15242855365852,
    "matched_source": "cache",
    "confidence": 0.7,
    "notes": "cached source=osm verified=2025-11-26 display='新茂木'"
  },
  {
    "id": "tepco_kikan_149",
    "name": "新古河",
    "name_original": "新古河",
    "name_normalized": "新古河",
    "utility": "TEPCO",
    "voltage_kv": 275,
    "available_kw": 5130000,
    "updated_at": "2025-11-25",
    "lat": 36.52292753658536,
    "lon": 140.15242855365852,
    "matched_source": "cache",
    "confidence": 0.7,
    "notes": "cached source=osm verified=2025-11-26 display='新茂木'"
  },
  {
    "id": "tepco_kikan_150",
    "name": "東群馬",
    "name_original": "東群馬",
    "name_normalized": "東群馬",
    "utility": "TEPCO",
    "voltage_kv": 275,
    "available_kw": 0,
    "updated_at": "2025-11-25",
    "lat": 36.579331958974365,
    "lon": 139.22354018717948,
    "matched_source": "cache",
    "confidence": 0.7,
    "notes": "cached source=osm verified=2025-11-26 display='東群馬変電所'"
  },
  {
    "id": "tepco_kikan_151",
    "name": "新新田",
    "name_original": "新新田",
    "name_normalized": "新新田",
    "utility": "TEPCO",
    "voltage_kv": 275,
    "available_kw": 800000,
    "updated_at": "2025-11-25",
    "lat": 36.52292753658536,
    "lon": 140.15242855365852,
    "matched_source": "cache",
    "confidence": 0.7,
    "notes": "cached source=osm verified=2025-11-26 display='新茂木'"
  },
  {
    "id": "tepco_kikan_152",
    "name": "新岡部",
    "name_original": "新岡部",
    "name_normalized": "新岡部",
    "utility": "TEPCO",
    "voltage_kv": 275,
    "available_kw": 1000000,
    "updated_at": "2025-11-25",
    "lat": 36.52292753658536,
    "lon": 140.15242855365852,
    "matched_source": "cache",
    "confidence": 0.7,
    "notes": "cached source=osm verified=2025-11-26 display='新茂木'"
  },
  {
    "id": "tepco_kikan_153",
    "name": "新岡部",
    "name_original": "新岡部",
    "name_normalized": "新岡部",
    "utility": "TEPCO",
    "voltage_kv": 154,
    "available_kw": 0,
    "updated_at": "2025-11-25",
    "lat": 36.52292753658536,
    "lon": 140.15242855365852,
    "matched_source": "cache",
    "confidence": 0.7,
    "notes": "cached source=osm verified=2025-11-26 display='新茂木'"
  },
  {
    "id": "tepco_kikan_154",
    "name": "新榛名",
    "name_original": "新榛名",
    "name_normalized": "新榛名",
    "utility": "TEPCO",
    "voltage_kv": 275,
    "available_kw": 0,
    "updated_at": "2025-11-25",
    "lat": 36.54779360967741,
    "lon": 138.83314955483874,
    "matched_source": "cache",
    "confidence": 0.9,
    "notes": "cached source=osm verified=2025-11-26 display='新榛名'"
  },
  {
    "id": "tepco_kikan_155",
    "name": "新信濃",
    "name_original": "新信濃",
    "name_normalized": "新信濃",
    "utility": "TEPCO",
    "voltage_kv": 275,
    "available_kw": 0,
    "updated_at": "2025-11-25",
    "lat": 36.52292753658536,
    "lon": 140.15242855365852,
    "matched_source": "cache",
    "confidence": 0.7,
    "notes": "cached source=osm verified=2025-11-26 display='新茂木'"
  },
  {
    "id": "tepco_kikan_156",
    "name": "新木更津",
    "name_original": "新木更津",
    "name_normalized": "新木更津",
    "utility": "TEPCO",
    "voltage_kv": 275,
    "available_kw": 0,
    "updated_at": "2025-11-25",
    "lat": 35.34313251111111,
    "lon": 140.02732282777777,
    "matched_source": "cache",
    "confidence": 0.7,
    "notes": "cached source=osm verified=2025-11-26 display='新木更津変電所'"
  },
  {
    "id": "tepco_kikan_157",
    "name": "房総",
    "name_original": "房総",
    "name_normalized": "房総",
    "utility": "TEPCO",
    "voltage_kv": 275,
    "available_kw": 0,
    "updated_at": "2025-11-25",
    "lat": 35.4991757047619,
    "lon": 140.16646302380954,
    "matched_source": "cache",
    "confidence": 0.7,
    "notes": "cached source=osm verified=2025-11-26 display='房総変電所'"
  },
  {
    "id": "tepco_kikan_158",
    "name": "新佐原",
    "name_original": "新佐原",
    "name_normalized": "新佐原",
    "utility": "TEPCO",
    "voltage_kv": 275,
    "available_kw": 0,
    "updated_at": "2025-11-25",
    "lat": 36.52292753658536,
    "lon": 140.15242855365852,
    "matched_source": "cache",
    "confidence": 0.7,
    "notes": "cached source=osm verified=2025-11-26 display='新茂木'"
  },
  {
    "id": "tepco_kikan_159",
    "name": "新京葉",
    "name_original": "新京葉",
    "name_normalized": "新京葉",
    "utility": "TEPCO",
    "voltage_kv": 275,
    "available_kw": 2400000,
    "updated_at": "2025-11-25",
    "lat": 36.52292753658536,
    "lon": 140.15242855365852,
    "matched_source": "cache",
    "confidence": 0.7,
    "notes": "cached source=osm verified=2025-11-26 display='新茂木'"
  },
  {
    "id": "tepco_kikan_160",
    "name": "新野田",
    "name_original": "新野田",
    "name_normalized": "新野田",
    "utility": "TEPCO",
    "voltage_kv": 275,
    "available_kw": 5130000,
    "updated_at": "2025-11-25",
    "lat": 36.52292753658536,
    "lon": 140.15242855365852,
    "matched_source": "cache",
    "confidence": 0.7,
    "notes": "cached source=osm verified=2025-11-26 display='新茂木'"
  },
  {
    "id": "tepco_kikan_161",
    "name": "東山梨",
    "name_original": "東山梨",
    "name_normalized": "東山梨",
    "utility": "TEPCO",
    "voltage_kv": 154,
    "available_kw": 1023000,
    "updated_at": "2025-11-25",
    "lat": 35.5905059488889,
    "lon": 138.79996020444443,
    "matched_source": "cache",
    "confidence": 0.7,
    "notes": "cached source=osm verified=2025-11-26 display='東山梨変電所'"
  },
  {
    "id": "tepco_kikan_162",
    "name": "新富士",
    "name_original": "新富士",
    "name_normalized": "新富士",
    "utility": "TEPCO",
    "voltage_kv": 154,
    "available_kw": 0,
    "updated_at": "2025-11-25",
    "lat": 36.52292753658536,
    "lon": 140.15242855365852,
    "matched_source": "cache",
    "confidence": 0.7,
    "notes": "cached source=osm verified=2025-11-26 display='新茂木'"
  },
  {
    "id": "tepco_kikan_163",
    "name": "新富士",
    "name_original": "新富士",
    "name_normalized": "新富士",
    "utility": "TEPCO",
    "voltage_kv": 154,
    "available_kw": 490000,
    "updated_at": "2025-11-25",
    "lat": 36.52292753658536,
    "lon": 140.15242855365852,
    "matched_source": "cache",
    "confidence": 0.7,
    "notes": "cached source=osm verified=2025-11-26 display='新茂木'"
  },
  {
    "id": "tepco_kikan_164",
    "name": "新富士",
    "name_original": "新富士",
    "name_normalized": "新富士",
    "utility": "TEPCO",
    "voltage_kv": 275,
    "available_kw": 220000,
    "updated_at": "2025-11-25",
    "lat": 36.52292753658536,
    "lon": 140.15242855365852,
    "matched_source": "cache",
    "confidence": 0.7,
    "notes": "cached source=osm verified=2025-11-26 display='新茂木'"
  },
  {
    "id": "tepco_kikan_165",
    "name": "新秦野",
    "name_original": "新秦野",
    "name_normalized": "新秦野",
    "utility": "TEPCO",
    "voltage_kv": 275,
    "available_kw": 0,
    "updated_at": "2025-11-25",
    "lat": 36.52292753658536,
    "lon": 140.15242855365852,
    "matched_source": "cache",
    "confidence": 0.7,
    "notes": "cached source=osm verified=2025-11-26 display='新茂木'"
  },
  {
    "id": "tepco_kikan_166",
    "name": "新秦野",
    "name_original": "新秦野",
    "name_normalized": "新秦野",
    "utility": "TEPCO",
    "voltage_kv": 154,
    "available_kw": 1710000,
    "updated_at": "2025-11-25",
    "lat": 36.52292753658536,
    "lon": 140.15242855365852,
    "matched_source": "cache",
    "confidence": 0.7,
    "notes": "cached source=osm verified=2025-11-26 display='新茂木'"
  },
  {
    "id": "tepco_kikan_167",
    "name": "新多摩",
    "name_original": "新多摩",
    "name_normalized": "新多摩",
    "utility": "TEPCO",
    "voltage_kv": 275,
    "available_kw": 1100000,
    "updated_at": "2025-11-25",
    "lat": 36.52292753658536,
    "lon": 140.15242855365852,
    "matched_source": "cache",
    "confidence": 0.7,
    "notes": "cached source=osm verified=2025-11-26 display='新茂木'"
  },
  {
    "id": "tepco_kikan_168",
    "name": "新坂戸",
    "name_original": "新坂戸",
    "name_normalized": "新坂戸",
    "utility": "TEPCO",
    "voltage_kv": 275,
    "available_kw": 3420000,
    "updated_at": "2025-11-25",
    "lat": 36.52292753658536,
    "lon": 140.15242855365852,
    "matched_source": "cache",
    "confidence": 0.7,
    "notes": "cached source=osm verified=2025-11-26 display='新茂木'"
  },
  {
    "id": "tepco_kikan_169",
    "name": "新所沢",
    "name_original": "新所沢",
    "name_normalized": "新所沢",
    "utility": "TEPCO",
    "voltage_kv": 275,
    "available_kw": 4560000,
    "updated_at": "2025-11-25",
    "lat": 36.52292753658536,
    "lon": 140.15242855365852,
    "matched_source": "cache",
    "confidence": 0.7,
    "notes": "cached source=osm verified=2025-11-26 display='新茂木'"
  },
  {
    "id": "tepco_kikan_170",
    "name": "新飯能",
    "name_original": "新飯能",
    "name_normalized": "新飯能",
    "utility": "TEPCO",
    "voltage_kv": 275,
    "available_kw": 1710000,
    "updated_at": "2025-11-25",
    "lat": 36.52292753658536,
    "lon": 140.15242855365852,
    "matched_source": "cache",
    "confidence": 0.7,
    "notes": "cached source=osm verified=2025-11-26 display='新茂木'"
  },
  {
    "id": "tepco_kikan_171",
    "name": "新豊洲",
    "name_original": "新豊洲",
    "name_normalized": "新豊洲",
    "utility": "TEPCO",
    "voltage_kv": 275,
    "available_kw": 1100000,
    "updated_at": "2025-11-25",
    "lat": 36.52292753658536,
    "lon": 140.15242855365852,
    "matched_source": "cache",
    "confidence": 0.7,
    "notes": "cached source=osm verified=2025-11-26 display='新茂木'"
  },
  {
    "id": "tepco_kikan_172",
    "name": "信濃川",
    "name_original": "信濃川",
    "name_normalized": "信濃川",
    "utility": "TEPCO",
    "voltage_kv": 154,
    "available_kw": 80000,
    "updated_at": "2025-11-25",
    "lat": 35.0241319,
    "lon": 135.7523188,
    "matched_source": "cache",
    "confidence": 0.75,
    "notes": "cached source=nominatim verified=2025-11-26 display='堀川変電所, 東堀川通, 武衛陣町, 主計町, 上京区, 京都市, 京都府, 602-8058, 日本'"
  },
  {
    "id": "tepco_tochigi_1",
    "name": "那須野",
    "name_original": "那須野",
    "name_normalized": "那須野",
    "utility": "TEPCO",
    "voltage_kv": 66,
    "available_kw": 0,
    "updated_at": "2025-11-25",
    "lat": 36.93764146666667,
    "lon": 140.03847336666666,
    "matched_source": "cache",
    "confidence": 0.7,
    "notes": "cached source=osm verified=2025-11-26 display='那須野変電所'"
  },
  {
    "id": "tepco_tochigi_2",
    "name": "新栃木",
    "name_original": "新栃木",
    "name_normalized": "新栃木",
    "utility": "TEPCO",
    "voltage_kv": 154,
    "available_kw": 0,
    "updated_at": "2025-11-25",
    "lat": 36.52292753658536,
    "lon": 140.15242855365852,
    "matched_source": "cache",
    "confidence": 0.8,
    "notes": "cached source=osm verified=2025-11-26 display='新茂木'"
  },
  {
    "id": "tepco_tochigi_3",
    "name": "新栃木",
    "name_original": "新栃木",
    "name_normalized": "新栃木",
    "utility": "TEPCO",
    "voltage_kv": 154,
    "available_kw": 0,
    "updated_at": "2025-11-25",
    "lat": 36.52292753658536,
    "lon": 140.15242855365852,
    "matched_source": "cache",
    "confidence": 0.8,
    "notes": "cached source=osm verified=2025-11-26 display='新茂木'"
  },
  {
    "id": "tepco_tochigi_4",
    "name": "河内",
    "name_original": "河内",
    "name_normalized": "河内",
    "utility": "TEPCO",
    "voltage_kv": 66,
    "available_kw": 0,
    "updated_at": "2025-11-25",
    "lat": 36.62412502000001,
    "lon": 139.94050574,
    "matched_source": "cache",
    "confidence": 0.7,
    "notes": "cached source=osm verified=2025-11-26 display='河内変電所'"
  },
  {
    "id": "tepco_tochigi_5",
    "name": "西宇都宮",
    "name_original": "西宇都宮",
    "name_normalized": "西宇都宮",
    "utility": "TEPCO",
    "voltage_kv": 66,
    "available_kw": 0,
    "updated_at": "2025-11-25",
    "lat": 36.58145556666667,
    "lon": 139.82140438888888,
    "matched_source": "cache",
    "confidence": 0.7,
    "notes": "cached source=osm verified=2025-11-26 display='西宇都宮変電所'"
  },
  {
    "id": "tepco_tochigi_6",
    "name": "芳賀",
    "name_original": "芳賀",
    "name_normalized": "芳賀",
    "utility": "TEPCO",
    "voltage_kv": 66,
    "available_kw": 138000,
    "updated_at": "2025-11-25",
    "lat": 36.51435255,
    "lon": 140.0100409375,
    "matched_source": "cache",
    "confidence": 0.7,
    "notes": "cached source=osm verified=2025-11-26 display='芳賀変電所'"
  },
  {
    "id": "tepco_tochigi_7",
    "name": "小山",
    "name_original": "小山",
    "name_normalized": "小山",
    "utility": "TEPCO",
    "voltage_kv": 66,
    "available_kw": 318000,
    "updated_at": "2025-11-25",
    "lat": 36.325418581250005,
    "lon": 139.8163760875,
    "matched_source": "cache",
    "confidence": 0.7,
    "notes": "cached source=osm verified=2025-11-26 display='小山変電所'"
  },
  {
    "id": "tepco_tochigi_8",
    "name": "佐野",
    "name_original": "佐野",
    "name_normalized": "佐野",
    "utility": "TEPCO",
    "voltage_kv": 66,
    "available_kw": 17000,
    "updated_at": "2025-11-25",
    "lat": 36.28032679375,
    "lon": 139.55497730625,
    "matched_source": "cache",
    "confidence": 0.7,
    "notes": "cached source=osm verified=2025-11-26 display='佐野変電所'"
  },
  {
    "id": "tepco_tochigi_9",
    "name": "野木",
    "name_original": "野木",
    "name_normalized": "野木",
    "utility": "TEPCO",
    "voltage_kv": 66,
    "available_kw": 222000,
    "updated_at": "2025-11-25",
    "lat": 36.52292753658536,
    "lon": 140.15242855365852,
    "matched_source": "cache",
    "confidence": 0.7,
    "notes": "cached source=osm verified=2025-11-26 display='新茂木'"
  },
  {
    "id": "tepco_tochigi_10",
    "name": "鬼怒川",
    "name_original": "鬼怒川",
    "name_normalized": "鬼怒川",
    "utility": "TEPCO",
    "voltage_kv": 66,
    "available_kw": 60000,
    "updated_at": "2025-11-25",
    "lat": 36.829360199999996,
    "lon": 139.7134549565217,
    "matched_source": "cache",
    "confidence": 0.7,
    "notes": "cached source=osm verified=2025-11-26 display='鬼怒川変電所'"
  },
  {
    "id": "tepco_tochigi_11",
    "name": "那須野",
    "name_original": "那須野",
    "name_normalized": "那須野",
    "utility": "TEPCO",
    "voltage_kv": 66,
    "available_kw": 0,
    "updated_at": "2025-11-25",
    "lat": 36.93764146666667,
    "lon": 140.03847336666666,
    "matched_source": "cache",
    "confidence": 0.7,
    "notes": "cached source=osm verified=2025-11-26 display='那須野変電所'"
  },
  {
    "id": "tepco_tochigi_12",
    "name": "鬼怒川",
    "name_original": "鬼怒川",
    "name_normalized": "鬼怒川",
    "utility": "TEPCO",
    "voltage_kv": 66,
    "available_kw": 60000,
    "updated_at": "2025-11-25",
    "lat": 36.829360199999996,
    "lon": 139.7134549565217,
    "matched_source": "cache",
    "confidence": 0.7,
    "notes": "cached source=osm verified=2025-11-26 display='鬼怒川変電所'"
  },